<?xml version="1.0" encoding="UTF-8"?>
<Document>
<Placemark>
  <name>Abana</name>
<<<<<<< HEAD
  <description>2 Kgs 5:12, 2 Kgs 5:12</description>
  <Point><coordinates>36.224661,33.545097</coordinates></Point>
  <Latlng><coordinates>33.545097,36.224661</coordinates></Latlng>
</Placemark>
<Placemark>
  <name>Abarim</name>
  <description>Num 27:12, Num 33:47, Num 33:48, Deut 32:49, Jer 22:20, Num 27:12, Num 33:47, Num 33:48, Deut 32:49, Jer 22:20</description>
  <Point><coordinates>35.746148,31.761357</coordinates></Point>
  <Latlng><coordinates>31.761357,35.746148</coordinates></Latlng>
</Placemark>
<Placemark>
  <name>Abdon</name>
  <description>Josh 21:30, 1 Chr 6:74, Josh 21:30, 1 Chr 6:74</description>
  <Point><coordinates>35.146201,33.047808</coordinates></Point>
  <Latlng><coordinates>33.047808,35.146201</coordinates></Latlng>
</Placemark>
<Placemark>
  <name>Abel</name>
  <description>2 Sam 20:14, 2 Sam 20:15, 2 Sam 20:18, 2 Sam 20:14, 2 Sam 20:15, 2 Sam 20:18</description>
  <Point><coordinates>35.578046,33.268526</coordinates></Point>
  <Latlng><coordinates>33.268526,35.578046</coordinates></Latlng>
</Placemark>
<Placemark>
  <name>Abel-beth-maacah</name>
  <description>1 Kgs 15:20, 2 Kgs 15:29, 1 Kgs 15:20, 2 Kgs 15:29</description>
  <Point><coordinates>35.578046,33.268526</coordinates></Point>
  <Latlng><coordinates>33.268526,35.578046</coordinates></Latlng>
</Placemark>
<Placemark>
  <name>Abel-keramim&#126;</name>
  <description>Judg 11:33, Judg 11:33</description>
  <Point><coordinates>35.82352,32.02425</coordinates></Point>
  <Latlng><coordinates>32.02425,35.82352</coordinates></Latlng>
</Placemark>
<Placemark>
  <name>Abel-maim</name>
  <description>2 Chr 16:4, 2 Chr 16:4</description>
  <Point><coordinates>35.578046,33.268526</coordinates></Point>
  <Latlng><coordinates>33.268526,35.578046</coordinates></Latlng>
</Placemark>
<Placemark>
  <name>Abel-meholah</name>
  <description>Judg 7:22, 1 Kgs 4:12, 1 Kgs 19:16, Judg 7:22, 1 Kgs 4:12, 1 Kgs 19:16</description>
  <Point><coordinates>35.536929,32.356010</coordinates></Point>
  <Latlng><coordinates>32.356010,35.536929</coordinates></Latlng>
</Placemark>
<Placemark>
  <name>Abel-shittim</name>
  <description>Num 33:49, Num 33:49</description>
  <Point><coordinates>35.641566,31.858262</coordinates></Point>
  <Latlng><coordinates>31.858262,35.641566</coordinates></Latlng>
</Placemark>
<Placemark>
  <name>Abiezer</name>
  <description>Judg 8:2, Judg 8:2</description>
  <Point><coordinates>35.288264,32.608682</coordinates></Point>
  <Latlng><coordinates>32.608682,35.288264</coordinates></Latlng>
</Placemark>
<Placemark>
  <name>Abilene</name>
  <description>Luke 3:1, Luke 3:1</description>
  <Point><coordinates>36.091710,33.587300</coordinates></Point>
  <Latlng><coordinates>33.587300,36.091710</coordinates></Latlng>
</Placemark>
<Placemark>
  <name>Abronah&#126;</name>
  <description>Num 33:34, Num 33:35, Num 33:34, Num 33:35</description>
  <Point><coordinates>35.030601,29.758043</coordinates></Point>
  <Latlng><coordinates>29.758043,35.030601</coordinates></Latlng>
</Placemark>
<Placemark>
  <name>Accad</name>
  <description>Gen 10:10, Gen 10:10</description>
  <Point><coordinates>44.129248,33.092016</coordinates></Point>
  <Latlng><coordinates>33.092016,44.129248</coordinates></Latlng>
</Placemark>
<Placemark>
  <name>Acco</name>
  <description>Judg 1:31, Judg 1:31</description>
  <Point><coordinates>35.081555,32.927583</coordinates></Point>
  <Latlng><coordinates>32.927583,35.081555</coordinates></Latlng>
</Placemark>
<Placemark>
  <name>Achaia&gt;</name>
  <description>Acts 18:12, Acts 18:27, Acts 19:21, Rom 15:26, 1 Cor 16:15, 2 Cor 1:1, 2 Cor 9:2, 2 Cor 11:10, 1 Thes 1:7, 1 Thes 1:8, Acts 18:12, Acts 18:27, Acts 19:21, Rom 15:26, 1 Cor 16:15, 2 Cor 1:1, 2 Cor 9:2, 2 Cor 11:10, 1 Thes 1:7, 1 Thes 1:8</description>
  <Point><coordinates>23.733333,37.983333</coordinates></Point>
  <Latlng><coordinates>37.983333,23.733333</coordinates></Latlng>
</Placemark>
<Placemark>
  <name>Achshaph</name>
  <description>Josh 11:1, Josh 12:20, Josh 19:25, Josh 11:1, Josh 12:20, Josh 19:25</description>
  <Point><coordinates>35.173826,32.951820</coordinates></Point>
  <Latlng><coordinates>32.951820,35.173826</coordinates></Latlng>
</Placemark>
<Placemark>
  <name>Achzib</name>
  <description>Josh 15:44, Mic 1:14, Josh 15:44, Mic 1:14</description>
  <Point><coordinates>35.000000,31.700000</coordinates></Point>
  <Latlng><coordinates>31.700000,35.000000</coordinates></Latlng>
</Placemark>
<Placemark>
  <name>Achzib</name>
  <description>Josh 19:29, Judg 1:31, Josh 19:29, Judg 1:31</description>
  <Point><coordinates>35.102202,33.048467</coordinates></Point>
  <Latlng><coordinates>33.048467,35.102202</coordinates></Latlng>
</Placemark>
<Placemark>
  <name>Adadah&#126;</name>
  <description>Josh 15:22, Josh 15:22</description>
  <Point><coordinates>34.96745,31.1858</coordinates></Point>
  <Latlng><coordinates>31.1858,34.96745</coordinates></Latlng>
</Placemark>
<Placemark>
  <name>Adam</name>
  <description>Josh 3:16, Josh 3:16</description>
  <Point><coordinates>35.564690,32.097720</coordinates></Point>
  <Latlng><coordinates>32.097720,35.564690</coordinates></Latlng>
</Placemark>
<Placemark>
  <name>Adamah&#63;</name>
  <description>Josh 19:36, Josh 19:36</description>
  <Point><coordinates>35.4382,32.7253</coordinates></Point>
  <Latlng><coordinates>32.7253,35.4382</coordinates></Latlng>
</Placemark>
<Placemark>
  <name>Adami-nekeb</name>
  <description>Josh 19:33, Josh 19:33</description>
  <Point><coordinates>35.542890,32.610500</coordinates></Point>
  <Latlng><coordinates>32.610500,35.542890</coordinates></Latlng>
</Placemark>
<Placemark>
  <name>Addar&#126;</name>
  <description>Josh 15:3, Josh 15:3</description>
  <Point><coordinates>34.7187,30.9522</coordinates></Point>
  <Latlng><coordinates>30.9522,34.7187</coordinates></Latlng>
</Placemark>
<Placemark>
  <name>Adithaim&#126;</name>
  <description>Josh 15:36, Josh 15:36</description>
  <Point><coordinates>34.89532,31.7001</coordinates></Point>
  <Latlng><coordinates>31.7001,34.89532</coordinates></Latlng>
</Placemark>
<Placemark>
  <name>Admah</name>
  <description>Gen 10:19, Gen 14:2, Gen 14:8, Deut 29:23, Hos 11:8, Gen 10:19, Gen 14:2, Gen 14:8, Deut 29:23, Hos 11:8</description>
  <Point><coordinates>35.412530,31.119422</coordinates></Point>
  <Latlng><coordinates>31.119422,35.412530</coordinates></Latlng>
</Placemark>
<Placemark>
  <name>Adoraim</name>
  <description>2 Chr 11:9, 2 Chr 11:9</description>
  <Point><coordinates>34.983333,31.516666</coordinates></Point>
  <Latlng><coordinates>31.516666,34.983333</coordinates></Latlng>
</Placemark>
<Placemark>
  <name>Adramyttium</name>
  <description>Acts 27:2, Acts 27:2</description>
  <Point><coordinates>26.936700,39.574800</coordinates></Point>
  <Latlng><coordinates>39.574800,26.936700</coordinates></Latlng>
</Placemark>
<Placemark>
  <name>Adriatic Sea</name>
  <description>Acts 27:27, Acts 27:27</description>
  <Point><coordinates>16.373500,42.415000</coordinates></Point>
  <Latlng><coordinates>42.415000,16.373500</coordinates></Latlng>
</Placemark>
<Placemark>
  <name>Adullam</name>
  <description>Josh 12:15, Josh 15:35, 1 Sam 22:1, 2 Sam 23:13, 1 Chr 11:15, 2 Chr 11:7, Neh 11:30, Mic 1:15, Josh 12:15, Josh 15:35, 1 Sam 22:1, 2 Sam 23:13, 1 Chr 11:15, 2 Chr 11:7, Neh 11:30, Mic 1:15</description>
  <Point><coordinates>35.000000,31.650000</coordinates></Point>
  <Latlng><coordinates>31.650000,35.000000</coordinates></Latlng>
</Placemark>
<Placemark>
  <name>Adummim</name>
  <description>Josh 15:7, Josh 18:17, Josh 15:7, Josh 18:17</description>
  <Point><coordinates>35.361646,31.817585</coordinates></Point>
  <Latlng><coordinates>31.817585,35.361646</coordinates></Latlng>
</Placemark>
<Placemark>
  <name>Aenon</name>
  <description>John 3:23, John 3:23</description>
  <Point><coordinates>35.543510,32.398936</coordinates></Point>
  <Latlng><coordinates>32.398936,35.543510</coordinates></Latlng>
</Placemark>
<Placemark>
  <name>Ahava</name>
  <description>Ezra 8:15, Ezra 8:21, Ezra 8:31, Ezra 8:15, Ezra 8:21, Ezra 8:31</description>
  <Point><coordinates>42.786647,33.625197</coordinates></Point>
  <Latlng><coordinates>33.625197,42.786647</coordinates></Latlng>
</Placemark>
<Placemark>
  <name>Ahlab</name>
  <description>Judg 1:31, Judg 1:31</description>
  <Point><coordinates>35.445446,33.024980</coordinates></Point>
  <Latlng><coordinates>33.024980,35.445446</coordinates></Latlng>
</Placemark>
<Placemark>
  <name>Ai</name>
  <description>Gen 12:8, Gen 13:3, Josh 7:2, Josh 7:3, Josh 7:4, Josh 7:5, Josh 8:1, Josh 8:2, Josh 8:3, Josh 8:9, Josh 8:10, Josh 8:11, Josh 8:12, Josh 8:14, Josh 8:17, Josh 8:18, Josh 8:20, Josh 8:21, Josh 8:23, Josh 8:24, Josh 8:25, Josh 8:26, Josh 8:28, Josh 8:29, Josh 9:3, Josh 10:1, Josh 10:2, Josh 12:9, Ezra 2:28, Neh 7:32, Gen 12:8, Gen 13:3, Josh 7:2, Josh 7:3, Josh 7:4, Josh 7:5, Josh 8:1, Josh 8:2, Josh 8:3, Josh 8:9, Josh 8:10, Josh 8:11, Josh 8:12, Josh 8:14, Josh 8:17, Josh 8:18, Josh 8:20, Josh 8:21, Josh 8:23, Josh 8:24, Josh 8:25, Josh 8:26, Josh 8:28, Josh 8:29, Josh 9:3, Josh 10:1, Josh 10:2, Josh 12:9, Ezra 2:28, Neh 7:32</description>
  <Point><coordinates>35.261226,31.916978</coordinates></Point>
  <Latlng><coordinates>31.916978,35.261226</coordinates></Latlng>
</Placemark>
<Placemark>
  <name>Aiath</name>
  <description>Isa 10:28, Isa 10:28</description>
  <Point><coordinates>35.261226,31.916978</coordinates></Point>
  <Latlng><coordinates>31.916978,35.261226</coordinates></Latlng>
</Placemark>
<Placemark>
  <name>Aija</name>
  <description>Neh 11:31, Neh 11:31</description>
  <Point><coordinates>35.261226,31.916978</coordinates></Point>
  <Latlng><coordinates>31.916978,35.261226</coordinates></Latlng>
</Placemark>
<Placemark>
  <name>Aijalon</name>
  <description>Josh 19:42, Josh 21:24, Judg 1:35, Judg 12:12, 1 Sam 14:31, 1 Chr 6:69, 1 Chr 8:13, 2 Chr 11:10, 2 Chr 28:18, Josh 19:42, Josh 21:24, Judg 1:35, Judg 12:12, 1 Sam 14:31, 1 Chr 6:69, 1 Chr 8:13, 2 Chr 11:10, 2 Chr 28:18</description>
  <Point><coordinates>35.025379,31.841173</coordinates></Point>
  <Latlng><coordinates>31.841173,35.025379</coordinates></Latlng>
</Placemark>
<Placemark>
  <name>Ain</name>
  <description>Josh 15:32, Josh 19:7, Josh 21:16, 1 Chr 4:32, Josh 15:32, Josh 19:7, Josh 21:16, 1 Chr 4:32</description>
  <Point><coordinates>34.860665,31.370835</coordinates></Point>
  <Latlng><coordinates>31.370835,34.860665</coordinates></Latlng>
</Placemark>
<Placemark>
  <name>Ain</name>
  <description>Num 34:11, Num 34:11</description>
  <Point><coordinates>36.385705,34.353071</coordinates></Point>
  <Latlng><coordinates>34.353071,36.385705</coordinates></Latlng>
</Placemark>
<Placemark>
  <name>Ai&#126;</name>
  <description>Jer 49:3, Jer 49:3</description>
  <Point><coordinates>35.809018,31.800520</coordinates></Point>
  <Latlng><coordinates>31.800520,35.809018</coordinates></Latlng>
</Placemark>
<Placemark>
  <name>Akeldama&#126;</name>
  <description>Acts 1:19, Acts 1:19</description>
  <Point><coordinates>35.234935,31.777444</coordinates></Point>
  <Latlng><coordinates>31.777444,35.234935</coordinates></Latlng>
</Placemark>
<Placemark>
  <name>Akrabbim</name>
  <description>Num 34:4, Josh 15:3, Judg 1:36, Num 34:4, Josh 15:3, Judg 1:36</description>
  <Point><coordinates>35.263182,30.688292</coordinates></Point>
  <Latlng><coordinates>30.688292,35.263182</coordinates></Latlng>
</Placemark>
<Placemark>
  <name>Alemeth</name>
  <description>1 Chr 6:60, 1 Chr 6:60</description>
  <Point><coordinates>35.287637,31.828406</coordinates></Point>
  <Latlng><coordinates>31.828406,35.287637</coordinates></Latlng>
</Placemark>
<Placemark>
  <name>Alexandria</name>
  <description>Acts 18:24, Acts 27:6, Acts 28:11, Acts 18:24, Acts 27:6, Acts 28:11</description>
  <Point><coordinates>29.956924,31.227841</coordinates></Point>
  <Latlng><coordinates>31.227841,29.956924</coordinates></Latlng>
</Placemark>
<Placemark>
  <name>Allammelech&#126;</name>
  <description>Josh 19:26, Josh 19:26</description>
  <Point><coordinates>35.182915,32.97829</coordinates></Point>
  <Latlng><coordinates>32.97829,35.182915</coordinates></Latlng>
</Placemark>
<Placemark>
  <name>Allon-bacuth&#126;</name>
  <description>Gen 35:8, Gen 35:8</description>
  <Point><coordinates>35.221032,31.930539</coordinates></Point>
  <Latlng><coordinates>31.930539,35.221032</coordinates></Latlng>
</Placemark>
<Placemark>
  <name>Almon</name>
  <description>Josh 21:18, Josh 21:18</description>
  <Point><coordinates>35.287637,31.828406</coordinates></Point>
  <Latlng><coordinates>31.828406,35.287637</coordinates></Latlng>
</Placemark>
<Placemark>
  <name>Almon-diblathaim</name>
  <description>Num 33:46, Num 33:47, Num 33:46, Num 33:47</description>
  <Point><coordinates>35.782841,31.496845</coordinates></Point>
  <Latlng><coordinates>31.496845,35.782841</coordinates></Latlng>
</Placemark>
<Placemark>
  <name>Alush&#126;</name>
  <description>Num 33:13, Num 33:14, Num 33:13, Num 33:14</description>
  <Point><coordinates>33.400460,28.770015</coordinates></Point>
  <Latlng><coordinates>28.770015,33.400460</coordinates></Latlng>
</Placemark>
<Placemark>
  <name>Amad</name>
  <description>Josh 19:26, Josh 19:26</description>
  <Point><coordinates>35.173644,33.019337</coordinates></Point>
  <Latlng><coordinates>33.019337,35.173644</coordinates></Latlng>
</Placemark>
<Placemark>
  <name>Amalek&gt;</name>
  <description>Ex 17:8, Ex 17:9, Ex 17:10, Ex 17:11, Ex 17:13, Ex 17:14, Ex 17:16, Num 24:20, Deut 25:17, Deut 25:19, 1 Sam 15:2, 1 Sam 15:3, 1 Sam 15:5, 1 Sam 15:20, 1 Sam 28:18, 2 Sam 8:12, 1 Chr 18:11, Ps 83:7, Ex 17:8, Ex 17:9, Ex 17:10, Ex 17:11, Ex 17:13, Ex 17:14, Ex 17:16, Num 24:20, Deut 25:17, Deut 25:19, 1 Sam 15:2, 1 Sam 15:3, 1 Sam 15:5, 1 Sam 15:20, 1 Sam 28:18, 2 Sam 8:12, 1 Chr 18:11, Ps 83:7</description>
  <Point><coordinates>34.835554,30.659770</coordinates></Point>
  <Latlng><coordinates>30.659770,34.835554</coordinates></Latlng>
</Placemark>
<Placemark>
  <name>Amam&#126;</name>
  <description>Josh 15:26, Josh 15:26</description>
  <Point><coordinates>35.057114,31.162327</coordinates></Point>
  <Latlng><coordinates>31.162327,35.057114</coordinates></Latlng>
</Placemark>
<Placemark>
  <name>Amana</name>
  <description>Sng 4:8, Sng 4:8</description>
  <Point><coordinates>36.055039,33.681370</coordinates></Point>
  <Latlng><coordinates>33.681370,36.055039</coordinates></Latlng>
</Placemark>
<Placemark>
  <name>Amaw&#126;</name>
  <description>Num 22:5, Num 22:5</description>
  <Point><coordinates>38.068879,36.654616</coordinates></Point>
  <Latlng><coordinates>36.654616,38.068879</coordinates></Latlng>
</Placemark>
<Placemark>
  <name>Ammah&#126;</name>
  <description>2 Sam 2:24, 2 Sam 2:24</description>
  <Point><coordinates>35.343177,31.869005</coordinates></Point>
  <Latlng><coordinates>31.869005,35.343177</coordinates></Latlng>
</Placemark>
<Placemark>
  <name>Ammon</name>
  <description>Deut 2:19, Deut 2:37, Judg 11:27, 2 Chr 20:10, 2 Chr 20:22, 2 Chr 20:23, Neh 13:23, Ps 83:7, Jer 9:26, Jer 25:21, Jer 27:3, Ezek 25:5, Deut 2:19, Deut 2:37, Judg 11:27, 2 Chr 20:10, 2 Chr 20:22, 2 Chr 20:23, Neh 13:23, Ps 83:7, Jer 9:26, Jer 25:21, Jer 27:3, Ezek 25:5</description>
  <Point><coordinates>35.924131,31.950188</coordinates></Point>
  <Latlng><coordinates>31.950188,35.924131</coordinates></Latlng>
</Placemark>
<Placemark>
  <name>Amphipolis</name>
  <description>Acts 17:1, Acts 17:1</description>
  <Point><coordinates>23.838631,40.823225</coordinates></Point>
  <Latlng><coordinates>40.823225,23.838631</coordinates></Latlng>
</Placemark>
<Placemark>
  <name>Anab</name>
  <description>Josh 11:21, Josh 15:50, Josh 11:21, Josh 15:50</description>
  <Point><coordinates>34.944185,31.403888</coordinates></Point>
  <Latlng><coordinates>31.403888,34.944185</coordinates></Latlng>
</Placemark>
<Placemark>
  <name>Anaharath</name>
  <description>Josh 19:19, Josh 19:19</description>
  <Point><coordinates>35.397389,32.607039</coordinates></Point>
  <Latlng><coordinates>32.607039,35.397389</coordinates></Latlng>
</Placemark>
<Placemark>
  <name>Ananiah&#63;</name>
  <description>Neh 11:32, Neh 11:32</description>
  <Point><coordinates>35.219683,31.832910</coordinates></Point>
  <Latlng><coordinates>31.832910,35.219683</coordinates></Latlng>
</Placemark>
<Placemark>
  <name>Anathoth</name>
  <description>Josh 21:18, 2 Sam 23:27, 1 Kgs 2:26, 1 Chr 6:60, 1 Chr 11:28, 1 Chr 12:3, 1 Chr 27:12, Ezra 2:23, Neh 7:27, Neh 11:32, Isa 10:30, Jer 1:1, Jer 11:21, Jer 11:23, Jer 29:27, Jer 32:7, Jer 32:8, Jer 32:9, Josh 21:18, 2 Sam 23:27, 1 Kgs 2:26, 1 Chr 6:60, 1 Chr 11:28, 1 Chr 12:3, 1 Chr 27:12, Ezra 2:23, Neh 7:27, Neh 11:32, Isa 10:30, Jer 1:1, Jer 11:21, Jer 11:23, Jer 29:27, Jer 32:7, Jer 32:8, Jer 32:9</description>
  <Point><coordinates>35.263498,31.812912</coordinates></Point>
  <Latlng><coordinates>31.812912,35.263498</coordinates></Latlng>
</Placemark>
<Placemark>
  <name>Anem</name>
  <description>1 Chr 6:73, 1 Chr 6:73</description>
  <Point><coordinates>35.303683,32.463499</coordinates></Point>
  <Latlng><coordinates>32.463499,35.303683</coordinates></Latlng>
</Placemark>
<Placemark>
  <name>Aner</name>
  <description>1 Chr 6:70, 1 Chr 6:70</description>
  <Point><coordinates>35.216325,32.517239</coordinates></Point>
  <Latlng><coordinates>32.517239,35.216325</coordinates></Latlng>
</Placemark>
<Placemark>
  <name>Angle&lt;</name>
  <description>2 Chr 26:9, 2 Chr 26:9</description>
  <Point><coordinates>35.234935,31.777444</coordinates></Point>
  <Latlng><coordinates>31.777444,35.234935</coordinates></Latlng>
</Placemark>
<Placemark>
  <name>Anim</name>
  <description>Josh 15:50, Josh 15:50</description>
  <Point><coordinates>35.074552,31.373521</coordinates></Point>
  <Latlng><coordinates>31.373521,35.074552</coordinates></Latlng>
</Placemark>
<Placemark>
  <name>Antioch</name>
  <description>Acts 6:5, Acts 11:19, Acts 11:20, Acts 11:22, Acts 11:26, Acts 11:27, Acts 13:1, Acts 14:26, Acts 15:22, Acts 15:23, Acts 15:30, Acts 15:35, Acts 18:22, Gal 2:11, Acts 6:5, Acts 11:19, Acts 11:20, Acts 11:22, Acts 11:26, Acts 11:27, Acts 13:1, Acts 14:26, Acts 15:22, Acts 15:23, Acts 15:30, Acts 15:35, Acts 18:22, Gal 2:11</description>
  <Point><coordinates>36.162387,36.202330</coordinates></Point>
  <Latlng><coordinates>36.202330,36.162387</coordinates></Latlng>
</Placemark>
<Placemark>
  <name>Antioch</name>
  <description>Acts 13:14, Acts 14:19, Acts 14:21, 2 Tim 3:11, Acts 13:14, Acts 14:19, Acts 14:21, 2 Tim 3:11</description>
  <Point><coordinates>31.179486,38.316430</coordinates></Point>
  <Latlng><coordinates>38.316430,31.179486</coordinates></Latlng>
</Placemark>
<Placemark>
  <name>Antipatris</name>
  <description>Acts 23:31, Acts 23:31</description>
  <Point><coordinates>34.946509,32.100437</coordinates></Point>
  <Latlng><coordinates>32.100437,34.946509</coordinates></Latlng>
</Placemark>
<Placemark>
  <name>Aphek</name>
  <description>Josh 12:18, 1 Sam 4:1, 1 Sam 29:1, Josh 12:18, 1 Sam 4:1, 1 Sam 29:1</description>
  <Point><coordinates>34.931979,32.104712</coordinates></Point>
  <Latlng><coordinates>32.104712,34.931979</coordinates></Latlng>
</Placemark>
<Placemark>
  <name>Aphek</name>
  <description>1 Kgs 20:26, 1 Kgs 20:30, 2 Kgs 13:17, 1 Kgs 20:26, 1 Kgs 20:30, 2 Kgs 13:17</description>
  <Point><coordinates>35.698749,32.778268</coordinates></Point>
  <Latlng><coordinates>32.778268,35.698749</coordinates></Latlng>
</Placemark>
<Placemark>
  <name>Aphek</name>
  <description>Josh 13:4, Josh 19:30, Josh 13:4, Josh 19:30</description>
  <Point><coordinates>35.865801,34.066067</coordinates></Point>
  <Latlng><coordinates>34.066067,35.865801</coordinates></Latlng>
</Placemark>
<Placemark>
  <name>Aphekah</name>
  <description>Josh 15:53, Josh 15:53</description>
  <Point><coordinates>34.931979,32.104712</coordinates></Point>
  <Latlng><coordinates>32.104712,34.931979</coordinates></Latlng>
</Placemark>
<Placemark>
  <name>Aphik</name>
  <description>Judg 1:31, Judg 1:31</description>
  <Point><coordinates>35.865801,34.066067</coordinates></Point>
  <Latlng><coordinates>34.066067,35.865801</coordinates></Latlng>
</Placemark>
<Placemark>
  <name>Apollonia</name>
  <description>Acts 17:1, Acts 17:1</description>
  <Point><coordinates>23.353351,40.587632</coordinates></Point>
  <Latlng><coordinates>40.587632,23.353351</coordinates></Latlng>
</Placemark>
<Placemark>
  <name>Ar</name>
  <description>Num 21:15, Num 21:28, Deut 2:9, Deut 2:18, Deut 2:29, Isa 15:1, Num 21:15, Num 21:28, Deut 2:9, Deut 2:18, Deut 2:29, Isa 15:1</description>
  <Point><coordinates>35.593958,31.449809</coordinates></Point>
  <Latlng><coordinates>31.449809,35.593958</coordinates></Latlng>
</Placemark>
<Placemark>
  <name>Arabah</name>
  <description>Deut 1:1, Deut 1:7, Deut 2:8, Deut 3:17, Deut 4:49, Deut 11:30, Josh 8:14, Josh 11:2, Josh 11:16, Josh 12:1, Josh 12:3, Josh 12:8, Josh 18:18, 1 Sam 23:24, 2 Sam 2:29, 2 Sam 4:7, 2 Kgs 25:4, Jer 39:4, Jer 52:7, Ezek 47:8, Deut 1:1, Deut 1:7, Deut 2:8, Deut 3:17, Deut 4:49, Deut 11:30, Josh 8:14, Josh 11:2, Josh 11:16, Josh 12:1, Josh 12:3, Josh 12:8, Josh 18:18, 1 Sam 23:24, 2 Sam 2:29, 2 Sam 4:7, 2 Kgs 25:4, Jer 39:4, Jer 52:7, Ezek 47:8</description>
  <Point><coordinates>35.520995,32.029676</coordinates></Point>
  <Latlng><coordinates>32.029676,35.520995</coordinates></Latlng>
</Placemark>
<Placemark>
  <name>Arabia&gt;</name>
  <description>2 Chr 9:14, Isa 21:13, Jer 25:24, Ezek 27:21, Ezek 30:5, Gal 1:17, Gal 4:25, 2 Chr 9:14, Isa 21:13, Jer 25:24, Ezek 27:21, Ezek 30:5, Gal 1:17, Gal 4:25</description>
  <Point><coordinates>37.7,27.4</coordinates></Point>
  <Latlng><coordinates>27.4,37.7</coordinates></Latlng>
</Placemark>
<Placemark>
  <name>Arab&#126;</name>
  <description>Josh 15:52, Josh 15:52</description>
  <Point><coordinates>35.045648,31.450746</coordinates></Point>
  <Latlng><coordinates>31.450746,35.045648</coordinates></Latlng>
</Placemark>
<Placemark>
  <name>Arad</name>
  <description>Num 21:1, Num 33:40, Josh 12:14, Judg 1:16, Num 21:1, Num 33:40, Josh 12:14, Judg 1:16</description>
  <Point><coordinates>35.126365,31.280981</coordinates></Point>
  <Latlng><coordinates>31.280981,35.126365</coordinates></Latlng>
</Placemark>
<Placemark>
  <name>Aram-maacah&#126;</name>
  <description>1 Chr 19:6, 1 Chr 19:6</description>
  <Point><coordinates>36.5,33.2</coordinates></Point>
  <Latlng><coordinates>33.2,36.5</coordinates></Latlng>
</Placemark>
<Placemark>
  <name>Aram-naharaim&#126;</name>
  <description>Ps 60:1, Ps 60:1</description>
  <Point><coordinates>42.0,35.1</coordinates></Point>
  <Latlng><coordinates>35.1,42.0</coordinates></Latlng>
</Placemark>
<Placemark>
  <name>Aram-zobah&#126;</name>
  <description>Ps 60:1, Ps 60:1</description>
  <Point><coordinates>36.313449,33.519299</coordinates></Point>
  <Latlng><coordinates>33.519299,36.313449</coordinates></Latlng>
</Placemark>
<Placemark>
  <name>Aram&#126;</name>
  <description>Num 23:7, 2 Sam 8:6, 2 Sam 15:8, 1 Chr 2:23, Hos 12:12, Num 23:7, 2 Sam 8:6, 2 Sam 15:8, 1 Chr 2:23, Hos 12:12</description>
  <Point><coordinates>39.12,34.85</coordinates></Point>
  <Latlng><coordinates>34.85,39.12</coordinates></Latlng>
</Placemark>
<Placemark>
  <name>Ararat</name>
  <description>Gen 8:4, 2 Kgs 19:37, Isa 37:38, Jer 51:27, Gen 8:4, 2 Kgs 19:37, Isa 37:38, Jer 51:27</description>
  <Point><coordinates>44.298180,39.702892</coordinates></Point>
  <Latlng><coordinates>39.702892,44.298180</coordinates></Latlng>
</Placemark>
<Placemark>
  <name>Areopagus&lt;</name>
  <description>Acts 17:19, Acts 17:22, Acts 17:19, Acts 17:22</description>
  <Point><coordinates>23.733333,37.983333</coordinates></Point>
  <Latlng><coordinates>37.983333,23.733333</coordinates></Latlng>
</Placemark>
<Placemark>
  <name>Argob&#126;</name>
  <description>Deut 3:4, Deut 3:13, Deut 3:14, 1 Kgs 4:13, Deut 3:4, Deut 3:13, Deut 3:14, 1 Kgs 4:13</description>
  <Point><coordinates>36.136,33.144</coordinates></Point>
  <Latlng><coordinates>33.144,36.136</coordinates></Latlng>
</Placemark>
<Placemark>
  <name>Ariel</name>
  <description>Isa 29:1, Isa 29:2, Isa 29:7, Isa 29:1, Isa 29:2, Isa 29:7</description>
  <Point><coordinates>35.234935,31.777444</coordinates></Point>
  <Latlng><coordinates>31.777444,35.234935</coordinates></Latlng>
</Placemark>
<Placemark>
  <name>Arimathea</name>
  <description>Matt 27:57, Mark 15:43, Luke 23:50, John 19:38, Matt 27:57, Mark 15:43, Luke 23:50, John 19:38</description>
  <Point><coordinates>35.180162,31.832739</coordinates></Point>
  <Latlng><coordinates>31.832739,35.180162</coordinates></Latlng>
</Placemark>
<Placemark>
  <name>Armageddon</name>
  <description>Rev 16:16, Rev 16:16</description>
  <Point><coordinates>35.182291,32.584183</coordinates></Point>
  <Latlng><coordinates>32.584183,35.182291</coordinates></Latlng>
</Placemark>
<Placemark>
  <name>Arnon</name>
  <description>Num 21:13, Num 21:14, Num 21:24, Num 21:26, Num 21:28, Num 22:36, Judg 11:13, Judg 11:18, Judg 11:22, Judg 11:26, Isa 16:2, Jer 48:20, Num 21:13, Num 21:14, Num 21:24, Num 21:26, Num 21:28, Num 22:36, Judg 11:13, Judg 11:18, Judg 11:22, Judg 11:26, Isa 16:2, Jer 48:20</description>
  <Point><coordinates>35.677009,31.428800</coordinates></Point>
  <Latlng><coordinates>31.428800,35.677009</coordinates></Latlng>
</Placemark>
<Placemark>
  <name>Aroer</name>
  <description>1 Sam 30:28, 1 Sam 30:28</description>
  <Point><coordinates>34.984852,31.148931</coordinates></Point>
  <Latlng><coordinates>31.148931,34.984852</coordinates></Latlng>
</Placemark>
<Placemark>
  <name>Aroer</name>
  <description>Deut 2:36, Deut 3:12, Deut 4:48, Josh 12:2, Josh 13:9, Josh 13:16, Judg 11:26, 2 Kgs 10:33, Jer 48:19, Deut 2:36, Deut 3:12, Deut 4:48, Josh 12:2, Josh 13:9, Josh 13:16, Judg 11:26, 2 Kgs 10:33, Jer 48:19</description>
  <Point><coordinates>35.822003,31.471095</coordinates></Point>
  <Latlng><coordinates>31.471095,35.822003</coordinates></Latlng>
</Placemark>
<Placemark>
  <name>Aroer&#126;</name>
  <description>Num 32:34, Josh 13:25, Judg 11:33, 2 Sam 24:5, 1 Chr 5:8, Isa 17:2, Num 32:34, Josh 13:25, Judg 11:33, 2 Sam 24:5, 1 Chr 5:8, Isa 17:2</description>
  <Point><coordinates>35.9115,31.9617</coordinates></Point>
  <Latlng><coordinates>31.9617,35.9115</coordinates></Latlng>
</Placemark>
<Placemark>
  <name>Arpad&#126;</name>
  <description>2 Kgs 18:34, 2 Kgs 19:13, Isa 10:9, Isa 36:19, Isa 37:13, Jer 49:23, 2 Kgs 18:34, 2 Kgs 19:13, Isa 10:9, Isa 36:19, Isa 37:13, Jer 49:23</description>
  <Point><coordinates>36.749488,35.136204</coordinates></Point>
  <Latlng><coordinates>35.136204,36.749488</coordinates></Latlng>
</Placemark>
<Placemark>
  <name>Arubboth&#126;</name>
  <description>1 Kgs 4:10, 1 Kgs 4:10</description>
  <Point><coordinates>34.976398,31.681234</coordinates></Point>
  <Latlng><coordinates>31.681234,34.976398</coordinates></Latlng>
</Placemark>
<Placemark>
  <name>Arumah</name>
  <description>Judg 9:41, Judg 9:41</description>
  <Point><coordinates>35.318192,32.154887</coordinates></Point>
  <Latlng><coordinates>32.154887,35.318192</coordinates></Latlng>
</Placemark>
<Placemark>
  <name>Arvad</name>
  <description>Ezek 27:8, Ezek 27:11, Ezek 27:8, Ezek 27:11</description>
  <Point><coordinates>35.858485,34.856082</coordinates></Point>
  <Latlng><coordinates>34.856082,35.858485</coordinates></Latlng>
</Placemark>
<Placemark>
  <name>Ashan&#126;</name>
  <description>Josh 15:42, Josh 19:7, 1 Chr 4:32, 1 Chr 6:59, Josh 15:42, Josh 19:7, 1 Chr 4:32, 1 Chr 6:59</description>
  <Point><coordinates>34.9365,31.8099</coordinates></Point>
  <Latlng><coordinates>31.8099,34.9365</coordinates></Latlng>
</Placemark>
<Placemark>
  <name>Ashdod</name>
  <description>Josh 11:22, Josh 13:3, Josh 15:46, Josh 15:47, 1 Sam 5:1, 1 Sam 5:3, 1 Sam 5:5, 1 Sam 5:6, 1 Sam 5:7, 1 Sam 6:17, 2 Chr 26:6, Neh 13:23, Neh 13:24, Isa 20:1, Jer 25:20, Amos 1:8, Amos 3:9, Zech 9:6, Josh 11:22, Josh 13:3, Josh 15:46, Josh 15:47, 1 Sam 5:1, 1 Sam 5:3, 1 Sam 5:5, 1 Sam 5:6, 1 Sam 5:7, 1 Sam 6:17, 2 Chr 26:6, Neh 13:23, Neh 13:24, Isa 20:1, Jer 25:20, Amos 1:8, Amos 3:9, Zech 9:6</description>
  <Point><coordinates>34.635114,31.802999</coordinates></Point>
  <Latlng><coordinates>31.802999,34.635114</coordinates></Latlng>
</Placemark>
<Placemark>
  <name>Ashdod&#39;s</name>
  <description>Zeph 2:4, Zeph 2:4</description>
  <Point><coordinates>34.635114,31.802999</coordinates></Point>
  <Latlng><coordinates>31.802999,34.635114</coordinates></Latlng>
</Placemark>
<Placemark>
  <name>Ashkelon</name>
  <description>Josh 13:3, Judg 1:18, Judg 14:19, 1 Sam 6:17, 2 Sam 1:20, Jer 25:20, Jer 47:5, Jer 47:7, Amos 1:8, Zeph 2:4, Zeph 2:7, Zech 9:5, Josh 13:3, Judg 1:18, Judg 14:19, 1 Sam 6:17, 2 Sam 1:20, Jer 25:20, Jer 47:5, Jer 47:7, Amos 1:8, Zeph 2:4, Zeph 2:7, Zech 9:5</description>
  <Point><coordinates>34.547227,31.662405</coordinates></Point>
  <Latlng><coordinates>31.662405,34.547227</coordinates></Latlng>
</Placemark>
<Placemark>
  <name>Ashkenaz&#126;</name>
  <description>Jer 51:27, Jer 51:27</description>
  <Point><coordinates>44.6,40.6</coordinates></Point>
  <Latlng><coordinates>40.6,44.6</coordinates></Latlng>
</Placemark>
<Placemark>
  <name>Ashnah&#126;</name>
  <description>Josh 15:33, Josh 15:43, Josh 15:33, Josh 15:43</description>
  <Point><coordinates>34.9365,31.8099</coordinates></Point>
  <Latlng><coordinates>31.8099,34.9365</coordinates></Latlng>
</Placemark>
<Placemark>
  <name>Ashtaroth</name>
  <description>Deut 1:4, Josh 9:10, Josh 12:4, Josh 13:12, Josh 13:31, 1 Chr 6:71, Deut 1:4, Josh 9:10, Josh 12:4, Josh 13:12, Josh 13:31, 1 Chr 6:71</description>
  <Point><coordinates>36.016666,32.833333</coordinates></Point>
  <Latlng><coordinates>32.833333,36.016666</coordinates></Latlng>
</Placemark>
<Placemark>
  <name>Ashteroth-karnaim</name>
  <description>Gen 14:5, Gen 14:5</description>
  <Point><coordinates>36.016666,32.766666</coordinates></Point>
  <Latlng><coordinates>32.766666,36.016666</coordinates></Latlng>
</Placemark>
<Placemark>
  <name>Asia&gt;</name>
  <description>Acts 2:9, Acts 6:9, Acts 16:6, Acts 19:10, Acts 19:22, Acts 19:26, Acts 19:27, Acts 20:16, Acts 20:18, Acts 21:27, Acts 24:18, Acts 27:2, Rom 16:5, 1 Cor 16:19, 2 Cor 1:8, 2 Tim 1:15, 1 Pet 1:1, Rev 1:4, Acts 2:9, Acts 6:9, Acts 16:6, Acts 19:10, Acts 19:22, Acts 19:26, Acts 19:27, Acts 20:16, Acts 20:18, Acts 21:27, Acts 24:18, Acts 27:2, Rom 16:5, 1 Cor 16:19, 2 Cor 1:8, 2 Tim 1:15, 1 Pet 1:1, Rev 1:4</description>
  <Point><coordinates>32.73,39.23</coordinates></Point>
  <Latlng><coordinates>39.23,32.73</coordinates></Latlng>
</Placemark>
<Placemark>
  <name>Asshur&gt;</name>
  <description>Num 24:22, Num 24:24, Ps 83:8, Ezek 27:23, Num 24:22, Num 24:24, Ps 83:8, Ezek 27:23</description>
  <Point><coordinates>43.152887,36.359410</coordinates></Point>
  <Latlng><coordinates>36.359410,43.152887</coordinates></Latlng>
</Placemark>
<Placemark>
  <name>Assos</name>
  <description>Acts 20:13, Acts 20:14, Acts 20:13, Acts 20:14</description>
  <Point><coordinates>26.335867,39.489550</coordinates></Point>
  <Latlng><coordinates>39.489550,26.335867</coordinates></Latlng>
</Placemark>
<Placemark>
  <name>Assyria&gt;</name>
  <description>Gen 2:14, Gen 10:11, Gen 25:18, 2 Kgs 15:19, 2 Kgs 15:20, 2 Kgs 15:29, 2 Kgs 16:7, 2 Kgs 16:8, 2 Kgs 16:9, 2 Kgs 16:10, 2 Kgs 16:18, 2 Kgs 17:3, 2 Kgs 17:4, 2 Kgs 17:5, 2 Kgs 17:6, 2 Kgs 17:23, 2 Kgs 17:24, 2 Kgs 17:26, 2 Kgs 17:27, 2 Kgs 18:7, 2 Kgs 18:9, 2 Kgs 18:11, 2 Kgs 18:13, 2 Kgs 18:14, 2 Kgs 18:16, 2 Kgs 18:17, 2 Kgs 18:19, 2 Kgs 18:23, 2 Kgs 18:28, 2 Kgs 18:30, 2 Kgs 18:31, 2 Kgs 18:33, 2 Kgs 19:4, 2 Kgs 19:6, 2 Kgs 19:8, 2 Kgs 19:10, 2 Kgs 19:11, 2 Kgs 19:17, 2 Kgs 19:20, 2 Kgs 19:32, 2 Kgs 19:36, 2 Kgs 20:6, 2 Kgs 23:29, 1 Chr 5:6, 1 Chr 5:26, 2 Chr 28:16, 2 Chr 28:20, 2 Chr 28:21, 2 Chr 30:6, 2 Chr 32:1, 2 Chr 32:4, 2 Chr 32:7, 2 Chr 32:9, 2 Chr 32:10, 2 Chr 32:11, 2 Chr 32:21, 2 Chr 32:22, 2 Chr 33:11, Ezra 4:2, Ezra 6:22, Neh 9:32, Isa 7:17, Isa 7:18, Isa 7:20, Isa 8:4, Isa 8:7, Isa 10:5, Isa 10:12, Isa 11:11, Isa 11:16, Isa 19:23, Isa 19:24, Isa 19:25, Isa 20:1, Isa 20:4, Isa 20:6, Isa 23:13, Isa 27:13, Isa 36:1, Isa 36:2, Isa 36:4, Isa 36:8, Isa 36:13, Isa 36:15, Isa 36:16, Isa 36:18, Isa 37:4, Isa 37:6, Isa 37:8, Isa 37:10, Isa 37:11, Isa 37:18, Isa 37:21, Isa 37:33, Isa 37:37, Isa 38:6, Jer 2:18, Jer 2:36, Jer 50:17, Jer 50:18, Lam 5:6, Ezek 23:7, Ezek 31:3, Ezek 32:22, Hos 5:13, Hos 7:11, Hos 8:9, Hos 9:3, Hos 10:6, Hos 11:5, Hos 11:11, Hos 12:1, Hos 14:3, Mic 5:6, Mic 7:12, Nahum 3:18, Zeph 2:13, Zech 10:10, Zech 10:11, Gen 2:14, Gen 10:11, Gen 25:18, 2 Kgs 15:19, 2 Kgs 15:20, 2 Kgs 15:29, 2 Kgs 16:7, 2 Kgs 16:8, 2 Kgs 16:9, 2 Kgs 16:10, 2 Kgs 16:18, 2 Kgs 17:3, 2 Kgs 17:4, 2 Kgs 17:5, 2 Kgs 17:6, 2 Kgs 17:23, 2 Kgs 17:24, 2 Kgs 17:26, 2 Kgs 17:27, 2 Kgs 18:7, 2 Kgs 18:9, 2 Kgs 18:11, 2 Kgs 18:13, 2 Kgs 18:14, 2 Kgs 18:16, 2 Kgs 18:17, 2 Kgs 18:19, 2 Kgs 18:23, 2 Kgs 18:28, 2 Kgs 18:30, 2 Kgs 18:31, 2 Kgs 18:33, 2 Kgs 19:4, 2 Kgs 19:6, 2 Kgs 19:8, 2 Kgs 19:10, 2 Kgs 19:11, 2 Kgs 19:17, 2 Kgs 19:20, 2 Kgs 19:32, 2 Kgs 19:36, 2 Kgs 20:6, 2 Kgs 23:29, 1 Chr 5:6, 1 Chr 5:26, 2 Chr 28:16, 2 Chr 28:20, 2 Chr 28:21, 2 Chr 30:6, 2 Chr 32:1, 2 Chr 32:4, 2 Chr 32:7, 2 Chr 32:9, 2 Chr 32:10, 2 Chr 32:11, 2 Chr 32:21, 2 Chr 32:22, 2 Chr 33:11, Ezra 4:2, Ezra 6:22, Neh 9:32, Isa 7:17, Isa 7:18, Isa 7:20, Isa 8:4, Isa 8:7, Isa 10:5, Isa 10:12, Isa 11:11, Isa 11:16, Isa 19:23, Isa 19:24, Isa 19:25, Isa 20:1, Isa 20:4, Isa 20:6, Isa 23:13, Isa 27:13, Isa 36:1, Isa 36:2, Isa 36:4, Isa 36:8, Isa 36:13, Isa 36:15, Isa 36:16, Isa 36:18, Isa 37:4, Isa 37:6, Isa 37:8, Isa 37:10, Isa 37:11, Isa 37:18, Isa 37:21, Isa 37:33, Isa 37:37, Isa 38:6, Jer 2:18, Jer 2:36, Jer 50:17, Jer 50:18, Lam 5:6, Ezek 23:7, Ezek 31:3, Ezek 32:22, Hos 5:13, Hos 7:11, Hos 8:9, Hos 9:3, Hos 10:6, Hos 11:5, Hos 11:11, Hos 12:1, Hos 14:3, Mic 5:6, Mic 7:12, Nahum 3:18, Zeph 2:13, Zech 10:10, Zech 10:11</description>
  <Point><coordinates>43.152887,36.359410</coordinates></Point>
  <Latlng><coordinates>36.359410,43.152887</coordinates></Latlng>
</Placemark>
<Placemark>
  <name>Ataroth</name>
  <description>Num 32:3, Num 32:34, Num 32:3, Num 32:34</description>
  <Point><coordinates>35.7,31.600000</coordinates></Point>
  <Latlng><coordinates>31.600000,35.7</coordinates></Latlng>
</Placemark>
<Placemark>
  <name>Ataroth-addar&#126;</name>
  <description>Josh 16:5, Josh 18:13, Josh 16:5, Josh 18:13</description>
  <Point><coordinates>35.128313,31.858917</coordinates></Point>
  <Latlng><coordinates>31.858917,35.128313</coordinates></Latlng>
</Placemark>
<Placemark>
  <name>Ataroth&#126;</name>
  <description>Josh 16:2, Josh 16:7, Josh 16:2, Josh 16:7</description>
  <Point><coordinates>35.128313,31.858917</coordinates></Point>
  <Latlng><coordinates>31.858917,35.128313</coordinates></Latlng>
</Placemark>
<Placemark>
  <name>Atharim&#126;</name>
  <description>Num 21:1, Num 21:1</description>
  <Point><coordinates>34.630620,30.880918</coordinates></Point>
  <Latlng><coordinates>30.880918,34.630620</coordinates></Latlng>
</Placemark>
<Placemark>
  <name>Athens</name>
  <description>Acts 17:15, Acts 17:16, Acts 17:22, Acts 18:1, 1 Thes 3:1, Acts 17:15, Acts 17:16, Acts 17:22, Acts 18:1, 1 Thes 3:1</description>
  <Point><coordinates>23.733333,37.983333</coordinates></Point>
  <Latlng><coordinates>37.983333,23.733333</coordinates></Latlng>
</Placemark>
<Placemark>
  <name>Atroth-shophan&#126;</name>
  <description>Num 32:35, Num 32:35</description>
  <Point><coordinates>35.9115,31.9617</coordinates></Point>
  <Latlng><coordinates>31.9617,35.9115</coordinates></Latlng>
</Placemark>
<Placemark>
  <name>Attalia</name>
  <description>Acts 14:25, Acts 14:25</description>
  <Point><coordinates>30.694565,36.880825</coordinates></Point>
  <Latlng><coordinates>36.880825,30.694565</coordinates></Latlng>
</Placemark>
<Placemark>
  <name>Aven</name>
  <description>Hos 10:8, Hos 10:8</description>
  <Point><coordinates>35.221032,31.930539</coordinates></Point>
  <Latlng><coordinates>31.930539,35.221032</coordinates></Latlng>
</Placemark>
<Placemark>
  <name>Avith&#126;</name>
  <description>Gen 36:35, 1 Chr 1:46, Gen 36:35, 1 Chr 1:46</description>
  <Point><coordinates>35.606250,30.734691</coordinates></Point>
  <Latlng><coordinates>30.734691,35.606250</coordinates></Latlng>
</Placemark>
<Placemark>
  <name>Avva&#126;</name>
  <description>2 Kgs 17:24, 2 Kgs 17:24</description>
  <Point><coordinates>41.964955,34.467725</coordinates></Point>
  <Latlng><coordinates>34.467725,41.964955</coordinates></Latlng>
</Placemark>
<Placemark>
  <name>Avvim&#126;</name>
  <description>Josh 18:23, Josh 18:23</description>
  <Point><coordinates>35.094099,31.535773</coordinates></Point>
  <Latlng><coordinates>31.535773,35.094099</coordinates></Latlng>
</Placemark>
<Placemark>
  <name>Ayyah</name>
  <description>1 Chr 7:28, 1 Chr 7:28</description>
  <Point><coordinates>34.433364,31.524817</coordinates></Point>
  <Latlng><coordinates>31.524817,34.433364</coordinates></Latlng>
</Placemark>
<Placemark>
  <name>Azal&#126;</name>
  <description>Zech 14:5, Zech 14:5</description>
  <Point><coordinates>35.247197,31.778095</coordinates></Point>
  <Latlng><coordinates>31.778095,35.247197</coordinates></Latlng>
</Placemark>
<Placemark>
  <name>Azekah</name>
  <description>Josh 10:10, Josh 10:11, Josh 15:35, 1 Sam 17:1, 2 Chr 11:9, Neh 11:30, Jer 34:7, Josh 10:10, Josh 10:11, Josh 15:35, 1 Sam 17:1, 2 Chr 11:9, Neh 11:30, Jer 34:7</description>
  <Point><coordinates>34.936185,31.700638</coordinates></Point>
  <Latlng><coordinates>31.700638,34.936185</coordinates></Latlng>
</Placemark>
<Placemark>
  <name>Azmaveth</name>
  <description>Ezra 2:24, Neh 12:29, Ezra 2:24, Neh 12:29</description>
  <Point><coordinates>35.260706,31.834203</coordinates></Point>
  <Latlng><coordinates>31.834203,35.260706</coordinates></Latlng>
</Placemark>
<Placemark>
  <name>Azmon</name>
  <description>Num 34:4, Num 34:5, Josh 15:4, Num 34:4, Num 34:5, Josh 15:4</description>
  <Point><coordinates>34.380500,30.958506</coordinates></Point>
  <Latlng><coordinates>30.958506,34.380500</coordinates></Latlng>
</Placemark>
<Placemark>
  <name>Aznoth-tabor&#126;</name>
  <description>Josh 19:34, Josh 19:34</description>
  <Point><coordinates>35.390913,32.686956</coordinates></Point>
  <Latlng><coordinates>32.686956,35.390913</coordinates></Latlng>
</Placemark>
<Placemark>
  <name>Azotus</name>
  <description>Acts 8:40, Acts 8:40</description>
  <Point><coordinates>34.635114,31.802999</coordinates></Point>
  <Latlng><coordinates>31.802999,34.635114</coordinates></Latlng>
</Placemark>
<Placemark>
  <name>Baal</name>
  <description>1 Chr 4:33, 1 Chr 4:33</description>
  <Point><coordinates>35.733402,32.049953</coordinates></Point>
  <Latlng><coordinates>32.049953,35.733402</coordinates></Latlng>
</Placemark>
<Placemark>
  <name>Baal-gad</name>
  <description>Josh 11:17, Josh 12:7, Josh 13:5, Josh 11:17, Josh 12:7, Josh 13:5</description>
  <Point><coordinates>35.857256,33.416159</coordinates></Point>
  <Latlng><coordinates>33.416159,35.857256</coordinates></Latlng>
</Placemark>
<Placemark>
  <name>Baal-hamon</name>
  <description>Sng 8:11, Sng 8:11</description>
  <Point><coordinates>35.857256,33.416159</coordinates></Point>
  <Latlng><coordinates>33.416159,35.857256</coordinates></Latlng>
</Placemark>
<Placemark>
  <name>Baal-hazor</name>
  <description>2 Sam 13:23, 2 Sam 13:23</description>
  <Point><coordinates>35.279229,31.979434</coordinates></Point>
  <Latlng><coordinates>31.979434,35.279229</coordinates></Latlng>
</Placemark>
<Placemark>
  <name>Baal-hermon</name>
  <description>1 Chr 5:23, 1 Chr 5:23</description>
  <Point><coordinates>35.857256,33.416159</coordinates></Point>
  <Latlng><coordinates>33.416159,35.857256</coordinates></Latlng>
</Placemark>
<Placemark>
  <name>Baal-meon</name>
  <description>Num 32:38, 1 Chr 5:8, Ezek 25:9, Num 32:38, 1 Chr 5:8, Ezek 25:9</description>
  <Point><coordinates>35.734892,31.679454</coordinates></Point>
  <Latlng><coordinates>31.679454,35.734892</coordinates></Latlng>
</Placemark>
<Placemark>
  <name>Baal-peor&#126;</name>
  <description>Deut 4:3, Hos 9:10, Deut 4:3, Hos 9:10</description>
  <Point><coordinates>35.718565,31.765031</coordinates></Point>
  <Latlng><coordinates>31.765031,35.718565</coordinates></Latlng>
</Placemark>
<Placemark>
  <name>Baal-perazim&#126;</name>
  <description>2 Sam 5:20, 1 Chr 14:11, 2 Sam 5:20, 1 Chr 14:11</description>
  <Point><coordinates>35.223059,31.756332</coordinates></Point>
  <Latlng><coordinates>31.756332,35.223059</coordinates></Latlng>
</Placemark>
<Placemark>
  <name>Baal-shalishah&#126;</name>
  <description>2 Kgs 4:42, 2 Kgs 4:42</description>
  <Point><coordinates>35.222604,32.029737</coordinates></Point>
  <Latlng><coordinates>32.029737,35.222604</coordinates></Latlng>
</Placemark>
<Placemark>
  <name>Baal-tamar&#126;</name>
  <description>Judg 20:33, Judg 20:33</description>
  <Point><coordinates>35.231009,31.823781</coordinates></Point>
  <Latlng><coordinates>31.823781,35.231009</coordinates></Latlng>
</Placemark>
<Placemark>
  <name>Baal-zephon&#63;</name>
  <description>Ex 14:2, Ex 14:9, Num 33:7, Ex 14:2, Ex 14:9, Num 33:7</description>
  <Point><coordinates>32.395473,29.938441</coordinates></Point>
  <Latlng><coordinates>29.938441,32.395473</coordinates></Latlng>
</Placemark>
<Placemark>
  <name>Baalah&#63;</name>
  <description>Josh 15:9, Josh 15:10, 1 Chr 13:6, Josh 15:9, Josh 15:10, 1 Chr 13:6</description>
  <Point><coordinates>34.993812,31.771104</coordinates></Point>
  <Latlng><coordinates>31.771104,34.993812</coordinates></Latlng>
</Placemark>
<Placemark>
  <name>Baalah&#126;</name>
  <description>Josh 15:29, Josh 15:29</description>
  <Point><coordinates>34.840888,31.244952</coordinates></Point>
  <Latlng><coordinates>31.244952,34.840888</coordinates></Latlng>
</Placemark>
<Placemark>
  <name>Baalath-beer</name>
  <description>Josh 19:8, Josh 19:8</description>
  <Point><coordinates>35.733402,32.049953</coordinates></Point>
  <Latlng><coordinates>32.049953,35.733402</coordinates></Latlng>
</Placemark>
<Placemark>
  <name>Baalath&#126;</name>
  <description>Josh 19:44, 1 Kgs 9:18, 2 Chr 8:6, Josh 19:44, 1 Kgs 9:18, 2 Chr 8:6</description>
  <Point><coordinates>35.055378,31.927451</coordinates></Point>
  <Latlng><coordinates>31.927451,35.055378</coordinates></Latlng>
</Placemark>
<Placemark>
  <name>Baale-judah&#63;</name>
  <description>2 Sam 6:2, 2 Sam 6:2</description>
  <Point><coordinates>34.993812,31.771104</coordinates></Point>
  <Latlng><coordinates>31.771104,34.993812</coordinates></Latlng>
</Placemark>
<Placemark>
  <name>Babel</name>
  <description>Gen 10:10, Gen 11:9, Gen 10:10, Gen 11:9</description>
  <Point><coordinates>44.420882,32.536503</coordinates></Point>
  <Latlng><coordinates>32.536503,44.420882</coordinates></Latlng>
</Placemark>
<Placemark>
  <name>Babylon</name>
  <description>2 Kgs 17:24, 2 Kgs 17:30, 2 Kgs 20:12, 2 Kgs 20:14, 2 Kgs 20:17, 2 Kgs 20:18, 2 Kgs 24:1, 2 Kgs 24:7, 2 Kgs 24:10, 2 Kgs 24:11, 2 Kgs 24:12, 2 Kgs 24:15, 2 Kgs 24:16, 2 Kgs 24:17, 2 Kgs 24:20, 2 Kgs 25:1, 2 Kgs 25:6, 2 Kgs 25:7, 2 Kgs 25:8, 2 Kgs 25:11, 2 Kgs 25:13, 2 Kgs 25:20, 2 Kgs 25:21, 2 Kgs 25:22, 2 Kgs 25:23, 2 Kgs 25:24, 2 Kgs 25:27, 2 Kgs 25:28, 1 Chr 9:1, 2 Chr 32:31, 2 Chr 33:11, 2 Chr 36:6, 2 Chr 36:7, 2 Chr 36:10, 2 Chr 36:18, 2 Chr 36:20, Ezra 2:1, Ezra 5:12, Ezra 5:13, Ezra 5:14, Ezra 5:17, Ezra 6:5, Neh 7:6, Neh 13:6, Est 2:6, Ps 87:4, Ps 137:1, Ps 137:8, Isa 13:1, Isa 13:19, Isa 14:4, Isa 14:22, Isa 21:9, Isa 39:1, Isa 39:3, Isa 39:6, Isa 39:7, Isa 43:14, Isa 47:1, Isa 48:14, Isa 48:20, Jer 20:4, Jer 20:5, Jer 20:6, Jer 21:2, Jer 21:4, Jer 21:7, Jer 21:10, Jer 22:25, Jer 24:1, Jer 25:1, Jer 25:9, Jer 25:11, Jer 25:12, Jer 25:26, Jer 27:6, Jer 27:8, Jer 27:9, Jer 27:11, Jer 27:12, Jer 27:13, Jer 27:14, Jer 27:16, Jer 27:17, Jer 27:18, Jer 27:20, Jer 27:22, Jer 28:2, Jer 28:3, Jer 28:4, Jer 28:6, Jer 28:11, Jer 28:14, Jer 29:1, Jer 29:3, Jer 29:4, Jer 29:10, Jer 29:15, Jer 29:20, Jer 29:21, Jer 29:22, Jer 29:28, Jer 32:2, Jer 32:3, Jer 32:4, Jer 32:5, Jer 32:28, Jer 32:36, Jer 34:1, Jer 34:2, Jer 34:3, Jer 34:7, Jer 34:21, Jer 35:11, Jer 36:29, Jer 37:1, Jer 37:17, Jer 37:19, Jer 38:3, Jer 38:17, Jer 38:18, Jer 38:22, Jer 38:23, Jer 39:1, Jer 39:3, Jer 39:5, Jer 39:6, Jer 39:7, Jer 39:9, Jer 39:11, Jer 39:13, Jer 40:1, Jer 40:4, Jer 40:5, Jer 40:7, Jer 40:9, Jer 40:11, Jer 41:2, Jer 41:18, Jer 42:11, Jer 43:3, Jer 43:10, Jer 44:30, Jer 46:2, Jer 46:13, Jer 46:26, Jer 49:28, Jer 49:30, Jer 50:1, Jer 50:2, Jer 50:8, Jer 50:9, Jer 50:13, Jer 50:14, Jer 50:16, Jer 50:17, Jer 50:18, Jer 50:23, Jer 50:24, Jer 50:28, Jer 50:29, Jer 50:34, Jer 50:35, Jer 50:39, Jer 50:42, Jer 50:43, Jer 50:45, Jer 50:46, Jer 51:1, Jer 51:2, Jer 51:6, Jer 51:7, Jer 51:8, Jer 51:9, Jer 51:11, Jer 51:12, Jer 51:24, Jer 51:29, Jer 51:30, Jer 51:31, Jer 51:33, Jer 51:34, Jer 51:35, Jer 51:37, Jer 51:41, Jer 51:42, Jer 51:44, Jer 51:47, Jer 51:48, Jer 51:49, Jer 51:53, Jer 51:54, Jer 51:55, Jer 51:56, Jer 51:58, Jer 51:59, Jer 51:60, Jer 51:61, Jer 51:64, Jer 52:3, Jer 52:4, Jer 52:9, Jer 52:10, Jer 52:11, Jer 52:12, Jer 52:15, Jer 52:17, Jer 52:26, Jer 52:27, Jer 52:31, Jer 52:32, Ezek 12:13, Ezek 17:12, Ezek 17:16, Ezek 17:20, Ezek 19:9, Ezek 21:19, Ezek 21:21, Ezek 24:2, Ezek 26:7, Ezek 29:18, Ezek 29:19, Ezek 30:10, Ezek 30:24, Ezek 30:25, Ezek 32:11, Dan 1:1, Dan 2:12, Dan 2:14, Dan 2:18, Dan 2:24, Dan 2:48, Dan 2:49, Dan 3:1, Dan 3:12, Dan 3:30, Dan 4:6, Dan 4:29, Dan 4:30, Dan 5:7, Dan 7:1, Mic 4:10, Zech 2:7, Zech 6:10, Matt 1:11, Matt 1:12, Matt 1:17, Acts 7:43, 1 Pet 5:13, Rev 14:8, Rev 16:19, Rev 17:5, Rev 18:2, Rev 18:10, Rev 18:21, 2 Kgs 17:24, 2 Kgs 17:30, 2 Kgs 20:12, 2 Kgs 20:14, 2 Kgs 20:17, 2 Kgs 20:18, 2 Kgs 24:1, 2 Kgs 24:7, 2 Kgs 24:10, 2 Kgs 24:11, 2 Kgs 24:12, 2 Kgs 24:15, 2 Kgs 24:16, 2 Kgs 24:17, 2 Kgs 24:20, 2 Kgs 25:1, 2 Kgs 25:6, 2 Kgs 25:7, 2 Kgs 25:8, 2 Kgs 25:11, 2 Kgs 25:13, 2 Kgs 25:20, 2 Kgs 25:21, 2 Kgs 25:22, 2 Kgs 25:23, 2 Kgs 25:24, 2 Kgs 25:27, 2 Kgs 25:28, 1 Chr 9:1, 2 Chr 32:31, 2 Chr 33:11, 2 Chr 36:6, 2 Chr 36:7, 2 Chr 36:10, 2 Chr 36:18, 2 Chr 36:20, Ezra 2:1, Ezra 5:12, Ezra 5:13, Ezra 5:14, Ezra 5:17, Ezra 6:5, Neh 7:6, Neh 13:6, Est 2:6, Ps 87:4, Ps 137:1, Ps 137:8, Isa 13:1, Isa 13:19, Isa 14:4, Isa 14:22, Isa 21:9, Isa 39:1, Isa 39:3, Isa 39:6, Isa 39:7, Isa 43:14, Isa 47:1, Isa 48:14, Isa 48:20, Jer 20:4, Jer 20:5, Jer 20:6, Jer 21:2, Jer 21:4, Jer 21:7, Jer 21:10, Jer 22:25, Jer 24:1, Jer 25:1, Jer 25:9, Jer 25:11, Jer 25:12, Jer 25:26, Jer 27:6, Jer 27:8, Jer 27:9, Jer 27:11, Jer 27:12, Jer 27:13, Jer 27:14, Jer 27:16, Jer 27:17, Jer 27:18, Jer 27:20, Jer 27:22, Jer 28:2, Jer 28:3, Jer 28:4, Jer 28:6, Jer 28:11, Jer 28:14, Jer 29:1, Jer 29:3, Jer 29:4, Jer 29:10, Jer 29:15, Jer 29:20, Jer 29:21, Jer 29:22, Jer 29:28, Jer 32:2, Jer 32:3, Jer 32:4, Jer 32:5, Jer 32:28, Jer 32:36, Jer 34:1, Jer 34:2, Jer 34:3, Jer 34:7, Jer 34:21, Jer 35:11, Jer 36:29, Jer 37:1, Jer 37:17, Jer 37:19, Jer 38:3, Jer 38:17, Jer 38:18, Jer 38:22, Jer 38:23, Jer 39:1, Jer 39:3, Jer 39:5, Jer 39:6, Jer 39:7, Jer 39:9, Jer 39:11, Jer 39:13, Jer 40:1, Jer 40:4, Jer 40:5, Jer 40:7, Jer 40:9, Jer 40:11, Jer 41:2, Jer 41:18, Jer 42:11, Jer 43:3, Jer 43:10, Jer 44:30, Jer 46:2, Jer 46:13, Jer 46:26, Jer 49:28, Jer 49:30, Jer 50:1, Jer 50:2, Jer 50:8, Jer 50:9, Jer 50:13, Jer 50:14, Jer 50:16, Jer 50:17, Jer 50:18, Jer 50:23, Jer 50:24, Jer 50:28, Jer 50:29, Jer 50:34, Jer 50:35, Jer 50:39, Jer 50:42, Jer 50:43, Jer 50:45, Jer 50:46, Jer 51:1, Jer 51:2, Jer 51:6, Jer 51:7, Jer 51:8, Jer 51:9, Jer 51:11, Jer 51:12, Jer 51:24, Jer 51:29, Jer 51:30, Jer 51:31, Jer 51:33, Jer 51:34, Jer 51:35, Jer 51:37, Jer 51:41, Jer 51:42, Jer 51:44, Jer 51:47, Jer 51:48, Jer 51:49, Jer 51:53, Jer 51:54, Jer 51:55, Jer 51:56, Jer 51:58, Jer 51:59, Jer 51:60, Jer 51:61, Jer 51:64, Jer 52:3, Jer 52:4, Jer 52:9, Jer 52:10, Jer 52:11, Jer 52:12, Jer 52:15, Jer 52:17, Jer 52:26, Jer 52:27, Jer 52:31, Jer 52:32, Ezek 12:13, Ezek 17:12, Ezek 17:16, Ezek 17:20, Ezek 19:9, Ezek 21:19, Ezek 21:21, Ezek 24:2, Ezek 26:7, Ezek 29:18, Ezek 29:19, Ezek 30:10, Ezek 30:24, Ezek 30:25, Ezek 32:11, Dan 1:1, Dan 2:12, Dan 2:14, Dan 2:18, Dan 2:24, Dan 2:48, Dan 2:49, Dan 3:1, Dan 3:12, Dan 3:30, Dan 4:6, Dan 4:29, Dan 4:30, Dan 5:7, Dan 7:1, Mic 4:10, Zech 2:7, Zech 6:10, Matt 1:11, Matt 1:12, Matt 1:17, Acts 7:43, 1 Pet 5:13, Rev 14:8, Rev 16:19, Rev 17:5, Rev 18:2, Rev 18:10, Rev 18:21</description>
  <Point><coordinates>44.420882,32.536503</coordinates></Point>
  <Latlng><coordinates>32.536503,44.420882</coordinates></Latlng>
</Placemark>
<Placemark>
  <name>Babylonia</name>
  <description>Ezra 1:11, Ezra 2:1, Ezra 5:12, Ezra 6:1, Ezra 7:6, Ezra 7:9, Ezra 7:16, Ezra 8:1, Ezra 1:11, Ezra 2:1, Ezra 5:12, Ezra 6:1, Ezra 7:6, Ezra 7:9, Ezra 7:16, Ezra 8:1</description>
  <Point><coordinates>44.420882,32.536503</coordinates></Point>
  <Latlng><coordinates>32.536503,44.420882</coordinates></Latlng>
</Placemark>
<Placemark>
  <name>Baharum&#126;</name>
  <description>1 Chr 11:33, 1 Chr 11:33</description>
  <Point><coordinates>35.388486,31.824736</coordinates></Point>
  <Latlng><coordinates>31.824736,35.388486</coordinates></Latlng>
</Placemark>
<Placemark>
  <name>Bahurim&#126;</name>
  <description>2 Sam 3:16, 2 Sam 16:5, 2 Sam 17:18, 2 Sam 19:16, 2 Sam 23:31, 1 Kgs 2:8, 2 Sam 3:16, 2 Sam 16:5, 2 Sam 17:18, 2 Sam 19:16, 2 Sam 23:31, 1 Kgs 2:8</description>
  <Point><coordinates>35.388486,31.824736</coordinates></Point>
  <Latlng><coordinates>31.824736,35.388486</coordinates></Latlng>
</Placemark>
<Placemark>
  <name>Balah&#126;</name>
  <description>Josh 19:3, Josh 19:3</description>
  <Point><coordinates>34.840888,31.244952</coordinates></Point>
  <Latlng><coordinates>31.244952,34.840888</coordinates></Latlng>
</Placemark>
<Placemark>
  <name>Bamah</name>
  <description>Ezek 20:29, Ezek 20:29</description>
  <Point><coordinates>35.184912,31.846847</coordinates></Point>
  <Latlng><coordinates>31.846847,35.184912</coordinates></Latlng>
</Placemark>
<Placemark>
  <name>Bamoth-baal&#126;</name>
  <description>Num 22:41, Josh 13:17, Num 22:41, Josh 13:17</description>
  <Point><coordinates>35.718565,31.765031</coordinates></Point>
  <Latlng><coordinates>31.765031,35.718565</coordinates></Latlng>
</Placemark>
<Placemark>
  <name>Bamoth&#126;</name>
  <description>Num 21:19, Num 21:20, Num 21:19, Num 21:20</description>
  <Point><coordinates>35.718565,31.765031</coordinates></Point>
  <Latlng><coordinates>31.765031,35.718565</coordinates></Latlng>
</Placemark>
<Placemark>
  <name>Bashan&gt;</name>
  <description>Num 21:33, Num 32:33, Deut 1:4, Deut 3:1, Deut 3:3, Deut 3:4, Deut 3:10, Deut 3:11, Deut 3:13, Deut 3:14, Deut 4:43, Deut 4:47, Deut 29:7, Deut 32:14, Deut 33:22, Josh 9:10, Josh 12:4, Josh 12:5, Josh 13:11, Josh 13:12, Josh 13:30, Josh 13:31, Josh 17:1, Josh 17:5, Josh 20:8, Josh 21:6, Josh 21:27, Josh 22:7, 1 Kgs 4:13, 1 Kgs 4:19, 2 Kgs 10:33, 1 Chr 5:11, 1 Chr 5:12, 1 Chr 5:16, 1 Chr 5:23, 1 Chr 6:62, 1 Chr 6:71, Neh 9:22, Ps 22:12, Ps 68:15, Ps 68:22, Ps 135:11, Ps 136:20, Isa 2:13, Isa 33:9, Jer 22:20, Jer 50:19, Ezek 27:6, Ezek 39:18, Amos 4:1, Mic 7:14, Nahum 1:4, Zech 11:2, Num 21:33, Num 32:33, Deut 1:4, Deut 3:1, Deut 3:3, Deut 3:4, Deut 3:10, Deut 3:11, Deut 3:13, Deut 3:14, Deut 4:43, Deut 4:47, Deut 29:7, Deut 32:14, Deut 33:22, Josh 9:10, Josh 12:4, Josh 12:5, Josh 13:11, Josh 13:12, Josh 13:30, Josh 13:31, Josh 17:1, Josh 17:5, Josh 20:8, Josh 21:6, Josh 21:27, Josh 22:7, 1 Kgs 4:13, 1 Kgs 4:19, 2 Kgs 10:33, 1 Chr 5:11, 1 Chr 5:12, 1 Chr 5:16, 1 Chr 5:23, 1 Chr 6:62, 1 Chr 6:71, Neh 9:22, Ps 22:12, Ps 68:15, Ps 68:22, Ps 135:11, Ps 136:20, Isa 2:13, Isa 33:9, Jer 22:20, Jer 50:19, Ezek 27:6, Ezek 39:18, Amos 4:1, Mic 7:14, Nahum 1:4, Zech 11:2</description>
  <Point><coordinates>35.937301,32.800075</coordinates></Point>
  <Latlng><coordinates>32.800075,35.937301</coordinates></Latlng>
</Placemark>
<Placemark>
  <name>Bath-rabbim&lt;</name>
  <description>Sng 7:4, Sng 7:4</description>
  <Point><coordinates>35.809018,31.800520</coordinates></Point>
  <Latlng><coordinates>31.800520,35.809018</coordinates></Latlng>
</Placemark>
<Placemark>
  <name>Bealoth</name>
  <description>Josh 15:24, 1 Kgs 4:16, Josh 15:24, 1 Kgs 4:16</description>
  <Point><coordinates>35.733402,32.049953</coordinates></Point>
  <Latlng><coordinates>32.049953,35.733402</coordinates></Latlng>
</Placemark>
<Placemark>
  <name>Beautiful Gate&lt;</name>
  <description>Acts 3:2, Acts 3:10, Acts 3:2, Acts 3:10</description>
  <Point><coordinates>35.234935,31.777444</coordinates></Point>
  <Latlng><coordinates>31.777444,35.234935</coordinates></Latlng>
</Placemark>
<Placemark>
  <name>Beer</name>
  <description>Judg 9:21, Judg 9:21</description>
  <Point><coordinates>35.216688,31.900074</coordinates></Point>
  <Latlng><coordinates>31.900074,35.216688</coordinates></Latlng>
</Placemark>
<Placemark>
  <name>Beer-elim&#126;</name>
  <description>Isa 15:8, Isa 15:8</description>
  <Point><coordinates>35.498547,30.998062</coordinates></Point>
  <Latlng><coordinates>30.998062,35.498547</coordinates></Latlng>
</Placemark>
<Placemark>
  <name>Beer-lahai-roi&#126;</name>
  <description>Gen 24:62, Gen 25:11, Gen 24:62, Gen 25:11</description>
  <Point><coordinates>34.494795,30.687712</coordinates></Point>
  <Latlng><coordinates>30.687712,34.494795</coordinates></Latlng>
</Placemark>
<Placemark>
  <name>Beeroth</name>
  <description>Josh 9:17, Josh 18:25, 2 Sam 4:2, 2 Sam 23:37, 1 Chr 11:39, Ezra 2:25, Neh 7:29, Josh 9:17, Josh 18:25, 2 Sam 4:2, 2 Sam 23:37, 1 Chr 11:39, Ezra 2:25, Neh 7:29</description>
  <Point><coordinates>35.216688,31.900074</coordinates></Point>
  <Latlng><coordinates>31.900074,35.216688</coordinates></Latlng>
</Placemark>
<Placemark>
  <name>Beeroth Bene-jaakan&#126;</name>
  <description>Deut 10:6, Deut 10:6</description>
  <Point><coordinates>35.407152,30.317396</coordinates></Point>
  <Latlng><coordinates>30.317396,35.407152</coordinates></Latlng>
</Placemark>
<Placemark>
  <name>Beersheba</name>
  <description>Gen 21:14, Gen 21:31, Gen 21:32, Gen 21:33, Gen 22:19, Gen 26:23, Gen 26:33, Gen 28:10, Gen 46:1, Gen 46:5, Josh 15:28, Josh 19:2, Judg 20:1, 1 Sam 3:20, 1 Sam 8:2, 2 Sam 3:10, 2 Sam 17:11, 2 Sam 24:2, 2 Sam 24:7, 2 Sam 24:15, 1 Kgs 4:25, 1 Kgs 19:3, 2 Kgs 12:1, 2 Kgs 23:8, 1 Chr 4:28, 1 Chr 21:2, 2 Chr 19:4, 2 Chr 24:1, 2 Chr 30:5, Neh 11:27, Neh 11:30, Amos 5:5, Gen 21:14, Gen 21:31, Gen 21:32, Gen 21:33, Gen 22:19, Gen 26:23, Gen 26:33, Gen 28:10, Gen 46:1, Gen 46:5, Josh 15:28, Josh 19:2, Judg 20:1, 1 Sam 3:20, 1 Sam 8:2, 2 Sam 3:10, 2 Sam 17:11, 2 Sam 24:2, 2 Sam 24:7, 2 Sam 24:15, 1 Kgs 4:25, 1 Kgs 19:3, 2 Kgs 12:1, 2 Kgs 23:8, 1 Chr 4:28, 1 Chr 21:2, 2 Chr 19:4, 2 Chr 24:1, 2 Chr 30:5, Neh 11:27, Neh 11:30, Amos 5:5</description>
  <Point><coordinates>34.840888,31.244952</coordinates></Point>
  <Latlng><coordinates>31.244952,34.840888</coordinates></Latlng>
</Placemark>
<Placemark>
  <name>Beer&#126;</name>
  <description>Num 21:16, Num 21:16</description>
  <Point><coordinates>35.498547,30.998062</coordinates></Point>
  <Latlng><coordinates>30.998062,35.498547</coordinates></Latlng>
</Placemark>
<Placemark>
  <name>Beeshterah</name>
  <description>Josh 21:27, Josh 21:27</description>
  <Point><coordinates>36.016666,32.833333</coordinates></Point>
  <Latlng><coordinates>32.833333,36.016666</coordinates></Latlng>
</Placemark>
<Placemark>
  <name>Bela</name>
  <description>Gen 14:2, Gen 14:8, Gen 14:2, Gen 14:8</description>
  <Point><coordinates>35.419060,30.926522</coordinates></Point>
  <Latlng><coordinates>30.926522,35.419060</coordinates></Latlng>
</Placemark>
<Placemark>
  <name>Bene-berak</name>
  <description>Josh 19:45, Josh 19:45</description>
  <Point><coordinates>34.827108,32.035782</coordinates></Point>
  <Latlng><coordinates>32.035782,34.827108</coordinates></Latlng>
</Placemark>
<Placemark>
  <name>Bene-jaakan&#126;</name>
  <description>Num 33:31, Num 33:32, Num 33:31, Num 33:32</description>
  <Point><coordinates>35.407152,30.317396</coordinates></Point>
  <Latlng><coordinates>30.317396,35.407152</coordinates></Latlng>
</Placemark>
<Placemark>
  <name>Benjamin Gate&lt;</name>
  <description>Jer 20:2, Jer 37:13, Jer 38:7, Jer 20:2, Jer 37:13, Jer 38:7</description>
  <Point><coordinates>35.234935,31.777444</coordinates></Point>
  <Latlng><coordinates>31.777444,35.234935</coordinates></Latlng>
</Placemark>
<Placemark>
  <name>Beon</name>
  <description>Num 32:3, Num 32:3</description>
  <Point><coordinates>35.734892,31.679454</coordinates></Point>
  <Latlng><coordinates>31.679454,35.734892</coordinates></Latlng>
</Placemark>
<Placemark>
  <name>Berea</name>
  <description>Acts 17:10, Acts 17:13, Acts 17:10, Acts 17:13</description>
  <Point><coordinates>22.2,40.5167</coordinates></Point>
  <Latlng><coordinates>40.5167,22.2</coordinates></Latlng>
</Placemark>
<Placemark>
  <name>Bered&#126;</name>
  <description>Gen 16:14, Gen 16:14</description>
  <Point><coordinates>34.494795,30.687712</coordinates></Point>
  <Latlng><coordinates>30.687712,34.494795</coordinates></Latlng>
</Placemark>
<Placemark>
  <name>Berothah</name>
  <description>Ezek 47:16, Ezek 47:16</description>
  <Point><coordinates>36.152049,33.931480</coordinates></Point>
  <Latlng><coordinates>33.931480,36.152049</coordinates></Latlng>
</Placemark>
<Placemark>
  <name>Berothai</name>
  <description>2 Sam 8:8, 2 Sam 8:8</description>
  <Point><coordinates>36.152049,33.931480</coordinates></Point>
  <Latlng><coordinates>33.931480,36.152049</coordinates></Latlng>
</Placemark>
<Placemark>
  <name>Besor</name>
  <description>1 Sam 30:9, 1 Sam 30:10, 1 Sam 30:21, 1 Sam 30:9, 1 Sam 30:10, 1 Sam 30:21</description>
  <Point><coordinates>34.436667,31.398056</coordinates></Point>
  <Latlng><coordinates>31.398056,34.436667</coordinates></Latlng>
</Placemark>
<Placemark>
  <name>Betah&#126;</name>
  <description>2 Sam 8:8, 2 Sam 8:8</description>
  <Point><coordinates>36.152049,33.931480</coordinates></Point>
  <Latlng><coordinates>33.931480,36.152049</coordinates></Latlng>
</Placemark>
<Placemark>
  <name>Beten</name>
  <description>Josh 19:25, Josh 19:25</description>
  <Point><coordinates>35.270799,32.934736</coordinates></Point>
  <Latlng><coordinates>32.934736,35.270799</coordinates></Latlng>
</Placemark>
<Placemark>
  <name>Beth-anath&#126;</name>
  <description>Josh 19:38, Judg 1:33, Josh 19:38, Judg 1:33</description>
  <Point><coordinates>35.427134,33.146864</coordinates></Point>
  <Latlng><coordinates>33.146864,35.427134</coordinates></Latlng>
</Placemark>
<Placemark>
  <name>Beth-anoth</name>
  <description>Josh 15:59, Josh 15:59</description>
  <Point><coordinates>35.124483,31.558456</coordinates></Point>
  <Latlng><coordinates>31.558456,35.124483</coordinates></Latlng>
</Placemark>
<Placemark>
  <name>Beth-arabah&#126;</name>
  <description>Josh 15:6, Josh 15:61, Josh 18:18, Josh 18:22, Josh 15:6, Josh 15:61, Josh 18:18, Josh 18:22</description>
  <Point><coordinates>35.506490,31.843320</coordinates></Point>
  <Latlng><coordinates>31.843320,35.506490</coordinates></Latlng>
</Placemark>
<Placemark>
  <name>Beth-arbel</name>
  <description>Hos 10:14, Hos 10:14</description>
  <Point><coordinates>35.847829,32.561011</coordinates></Point>
  <Latlng><coordinates>32.561011,35.847829</coordinates></Latlng>
</Placemark>
<Placemark>
  <name>Beth-aven</name>
  <description>Josh 7:2, Josh 18:12, 1 Sam 13:5, 1 Sam 14:23, Hos 4:15, Hos 5:8, Hos 10:5, Josh 7:2, Josh 18:12, 1 Sam 13:5, 1 Sam 14:23, Hos 4:15, Hos 5:8, Hos 10:5</description>
  <Point><coordinates>35.253098,31.895717</coordinates></Point>
  <Latlng><coordinates>31.895717,35.253098</coordinates></Latlng>
</Placemark>
<Placemark>
  <name>Beth-azmaveth</name>
  <description>Neh 7:28, Neh 7:28</description>
  <Point><coordinates>35.260706,31.834203</coordinates></Point>
  <Latlng><coordinates>31.834203,35.260706</coordinates></Latlng>
</Placemark>
<Placemark>
  <name>Beth-baal-meon</name>
  <description>Josh 13:17, Josh 13:17</description>
  <Point><coordinates>35.734892,31.679454</coordinates></Point>
  <Latlng><coordinates>31.679454,35.734892</coordinates></Latlng>
</Placemark>
<Placemark>
  <name>Beth-barah</name>
  <description>Judg 7:24, Judg 7:24</description>
  <Point><coordinates>35.552600,31.836321</coordinates></Point>
  <Latlng><coordinates>31.836321,35.552600</coordinates></Latlng>
</Placemark>
<Placemark>
  <name>Beth-biri&#126;</name>
  <description>1 Chr 4:31, 1 Chr 4:31</description>
  <Point><coordinates>34.940502,31.391668</coordinates></Point>
  <Latlng><coordinates>31.391668,34.940502</coordinates></Latlng>
</Placemark>
<Placemark>
  <name>Beth-car&#126;</name>
  <description>1 Sam 7:11, 1 Sam 7:11</description>
  <Point><coordinates>35.180162,31.832739</coordinates></Point>
  <Latlng><coordinates>31.832739,35.180162</coordinates></Latlng>
</Placemark>
<Placemark>
  <name>Beth-dagon&#126;</name>
  <description>Josh 15:41, Josh 15:41</description>
  <Point><coordinates>34.775,31.908</coordinates></Point>
  <Latlng><coordinates>31.908,34.775</coordinates></Latlng>
</Placemark>
<Placemark>
  <name>Beth-dagon&#126;</name>
  <description>Josh 19:27, Josh 19:27</description>
  <Point><coordinates>35.107928,32.899561</coordinates></Point>
  <Latlng><coordinates>32.899561,35.107928</coordinates></Latlng>
</Placemark>
<Placemark>
  <name>Beth-diblathaim</name>
  <description>Jer 48:22, Jer 48:22</description>
  <Point><coordinates>35.782841,31.496845</coordinates></Point>
  <Latlng><coordinates>31.496845,35.782841</coordinates></Latlng>
</Placemark>
<Placemark>
  <name>Beth-eden&#126;</name>
  <description>Amos 1:5, Amos 1:5</description>
  <Point><coordinates>36.313449,33.519299</coordinates></Point>
  <Latlng><coordinates>33.519299,36.313449</coordinates></Latlng>
</Placemark>
<Placemark>
  <name>Beth-eked&#126;</name>
  <description>2 Kgs 10:12, 2 Kgs 10:14, 2 Kgs 10:12, 2 Kgs 10:14</description>
  <Point><coordinates>35.330789,32.555963</coordinates></Point>
  <Latlng><coordinates>32.555963,35.330789</coordinates></Latlng>
</Placemark>
<Placemark>
  <name>Beth-emek</name>
  <description>Josh 19:27, Josh 19:27</description>
  <Point><coordinates>35.167096,32.978855</coordinates></Point>
  <Latlng><coordinates>32.978855,35.167096</coordinates></Latlng>
</Placemark>
<Placemark>
  <name>Beth-ezel&#126;</name>
  <description>Mic 1:11, Mic 1:11</description>
  <Point><coordinates>34.694006,31.743719</coordinates></Point>
  <Latlng><coordinates>31.743719,34.694006</coordinates></Latlng>
</Placemark>
<Placemark>
  <name>Beth-gamul</name>
  <description>Jer 48:23, Jer 48:23</description>
  <Point><coordinates>35.844714,31.519692</coordinates></Point>
  <Latlng><coordinates>31.519692,35.844714</coordinates></Latlng>
</Placemark>
<Placemark>
  <name>Beth-gilgal</name>
  <description>Neh 12:29, Neh 12:29</description>
  <Point><coordinates>35.518546,31.863783</coordinates></Point>
  <Latlng><coordinates>31.863783,35.518546</coordinates></Latlng>
</Placemark>
<Placemark>
  <name>Beth-haccherem</name>
  <description>Neh 3:14, Jer 6:1, Neh 3:14, Jer 6:1</description>
  <Point><coordinates>35.241516,31.665911</coordinates></Point>
  <Latlng><coordinates>31.665911,35.241516</coordinates></Latlng>
</Placemark>
<Placemark>
  <name>Beth-haggan&#126;</name>
  <description>2 Kgs 9:27, 2 Kgs 9:27</description>
  <Point><coordinates>35.182291,32.584183</coordinates></Point>
  <Latlng><coordinates>32.584183,35.182291</coordinates></Latlng>
</Placemark>
<Placemark>
  <name>Beth-haram</name>
  <description>Josh 13:27, Josh 13:27</description>
  <Point><coordinates>35.583333,31.816667</coordinates></Point>
  <Latlng><coordinates>31.816667,35.583333</coordinates></Latlng>
</Placemark>
<Placemark>
  <name>Beth-haran</name>
  <description>Num 32:36, Num 32:36</description>
  <Point><coordinates>35.583333,31.816667</coordinates></Point>
  <Latlng><coordinates>31.816667,35.583333</coordinates></Latlng>
</Placemark>
<Placemark>
  <name>Beth-hoglah</name>
  <description>Josh 15:6, Josh 18:19, Josh 18:21, Josh 15:6, Josh 18:19, Josh 18:21</description>
  <Point><coordinates>35.513151,31.837062</coordinates></Point>
  <Latlng><coordinates>31.837062,35.513151</coordinates></Latlng>
</Placemark>
<Placemark>
  <name>Beth-horon</name>
  <description>Josh 10:10, Josh 10:11, Josh 18:14, Josh 21:22, 1 Sam 13:18, 1 Chr 6:68, 2 Chr 25:13, Josh 10:10, Josh 10:11, Josh 18:14, Josh 21:22, 1 Sam 13:18, 1 Chr 6:68, 2 Chr 25:13</description>
  <Point><coordinates>35.123567,31.878925</coordinates></Point>
  <Latlng><coordinates>31.878925,35.123567</coordinates></Latlng>
</Placemark>
<Placemark>
  <name>Beth-jeshimoth</name>
  <description>Num 33:49, Josh 12:3, Josh 13:20, Ezek 25:9, Num 33:49, Josh 12:3, Josh 13:20, Ezek 25:9</description>
  <Point><coordinates>35.598657,31.776911</coordinates></Point>
  <Latlng><coordinates>31.776911,35.598657</coordinates></Latlng>
</Placemark>
<Placemark>
  <name>Beth-le-aphrah</name>
  <description>Mic 1:10, Mic 1:10</description>
  <Point><coordinates>35.299135,31.953789</coordinates></Point>
  <Latlng><coordinates>31.953789,35.299135</coordinates></Latlng>
</Placemark>
<Placemark>
  <name>Beth-lebaoth&#126;</name>
  <description>Josh 19:6, Josh 19:6</description>
  <Point><coordinates>34.940502,31.391668</coordinates></Point>
  <Latlng><coordinates>31.391668,34.940502</coordinates></Latlng>
</Placemark>
<Placemark>
  <name>Beth-maacah</name>
  <description>2 Sam 20:14, 2 Sam 20:15, 2 Sam 20:14, 2 Sam 20:15</description>
  <Point><coordinates>35.578046,33.268526</coordinates></Point>
  <Latlng><coordinates>33.268526,35.578046</coordinates></Latlng>
</Placemark>
<Placemark>
  <name>Beth-marcaboth</name>
  <description>Josh 19:5, 1 Chr 4:31, Josh 19:5, 1 Chr 4:31</description>
  <Point><coordinates>34.940502,31.391668</coordinates></Point>
  <Latlng><coordinates>31.391668,34.940502</coordinates></Latlng>
</Placemark>
<Placemark>
  <name>Beth-meon</name>
  <description>Jer 48:23, Jer 48:23</description>
  <Point><coordinates>35.734892,31.679454</coordinates></Point>
  <Latlng><coordinates>31.679454,35.734892</coordinates></Latlng>
</Placemark>
<Placemark>
  <name>Beth-millo&#126;</name>
  <description>Judg 9:6, Judg 9:20, Judg 9:6, Judg 9:20</description>
  <Point><coordinates>35.281798,32.213691</coordinates></Point>
  <Latlng><coordinates>32.213691,35.281798</coordinates></Latlng>
</Placemark>
<Placemark>
  <name>Beth-nimrah</name>
  <description>Num 32:36, Josh 13:27, Num 32:36, Josh 13:27</description>
  <Point><coordinates>35.625693,31.900811</coordinates></Point>
  <Latlng><coordinates>31.900811,35.625693</coordinates></Latlng>
</Placemark>
<Placemark>
  <name>Beth-pazzez&#126;</name>
  <description>Josh 19:21, Josh 19:21</description>
  <Point><coordinates>35.303683,32.463499</coordinates></Point>
  <Latlng><coordinates>32.463499,35.303683</coordinates></Latlng>
</Placemark>
<Placemark>
  <name>Beth-pelet&#126;</name>
  <description>Josh 15:27, Neh 11:26, Josh 15:27, Neh 11:26</description>
  <Point><coordinates>34.942986,31.215418</coordinates></Point>
  <Latlng><coordinates>31.215418,34.942986</coordinates></Latlng>
</Placemark>
<Placemark>
  <name>Beth-peor</name>
  <description>Deut 3:29, Deut 4:46, Deut 34:6, Josh 13:20, Deut 3:29, Deut 4:46, Deut 34:6, Josh 13:20</description>
  <Point><coordinates>35.711870,31.656099</coordinates></Point>
  <Latlng><coordinates>31.656099,35.711870</coordinates></Latlng>
</Placemark>
<Placemark>
  <name>Beth-rehob</name>
  <description>Judg 18:28, 2 Sam 10:6, Judg 18:28, 2 Sam 10:6</description>
  <Point><coordinates>35.544122,33.219354</coordinates></Point>
  <Latlng><coordinates>33.219354,35.544122</coordinates></Latlng>
</Placemark>
<Placemark>
  <name>Beth-shan</name>
  <description>1 Sam 31:10, 1 Sam 31:12, 2 Sam 21:12, 1 Sam 31:10, 1 Sam 31:12, 2 Sam 21:12</description>
  <Point><coordinates>35.503077,32.504238</coordinates></Point>
  <Latlng><coordinates>32.504238,35.503077</coordinates></Latlng>
</Placemark>
<Placemark>
  <name>Beth-shean</name>
  <description>Josh 17:11, Josh 17:16, Judg 1:27, 1 Kgs 4:12, 1 Chr 7:29, Josh 17:11, Josh 17:16, Judg 1:27, 1 Kgs 4:12, 1 Chr 7:29</description>
  <Point><coordinates>35.503077,32.504238</coordinates></Point>
  <Latlng><coordinates>32.504238,35.503077</coordinates></Latlng>
</Placemark>
<Placemark>
  <name>Beth-shemesh</name>
  <description>Josh 15:10, Josh 21:16, 1 Sam 6:9, 1 Sam 6:12, 1 Sam 6:13, 1 Sam 6:14, 1 Sam 6:15, 1 Sam 6:18, 1 Sam 6:19, 1 Sam 6:20, 1 Kgs 4:9, 2 Kgs 14:11, 2 Kgs 14:13, 1 Chr 6:59, 2 Chr 25:21, 2 Chr 25:23, 2 Chr 28:18, Josh 15:10, Josh 21:16, 1 Sam 6:9, 1 Sam 6:12, 1 Sam 6:13, 1 Sam 6:14, 1 Sam 6:15, 1 Sam 6:18, 1 Sam 6:19, 1 Sam 6:20, 1 Kgs 4:9, 2 Kgs 14:11, 2 Kgs 14:13, 1 Chr 6:59, 2 Chr 25:21, 2 Chr 25:23, 2 Chr 28:18</description>
  <Point><coordinates>34.976609,31.752748</coordinates></Point>
  <Latlng><coordinates>31.752748,34.976609</coordinates></Latlng>
</Placemark>
<Placemark>
  <name>Beth-shemesh</name>
  <description>Josh 19:22, Josh 19:22</description>
  <Point><coordinates>35.504628,32.406430</coordinates></Point>
  <Latlng><coordinates>32.406430,35.504628</coordinates></Latlng>
</Placemark>
<Placemark>
  <name>Beth-shemesh&#126;</name>
  <description>Josh 19:38, Judg 1:33, Josh 19:38, Judg 1:33</description>
  <Point><coordinates>35.427134,33.146864</coordinates></Point>
  <Latlng><coordinates>33.146864,35.427134</coordinates></Latlng>
</Placemark>
<Placemark>
  <name>Beth-shittah</name>
  <description>Judg 7:22, Judg 7:22</description>
  <Point><coordinates>35.438257,32.552496</coordinates></Point>
  <Latlng><coordinates>32.552496,35.438257</coordinates></Latlng>
</Placemark>
<Placemark>
  <name>Beth-tappuah</name>
  <description>Josh 15:53, Josh 15:53</description>
  <Point><coordinates>35.050377,31.529730</coordinates></Point>
  <Latlng><coordinates>31.529730,35.050377</coordinates></Latlng>
</Placemark>
<Placemark>
  <name>Beth-togarmah&gt;</name>
  <description>Ezek 27:14, Ezek 38:6, Ezek 27:14, Ezek 38:6</description>
  <Point><coordinates>45.036328,40.065539</coordinates></Point>
  <Latlng><coordinates>40.065539,45.036328</coordinates></Latlng>
</Placemark>
<Placemark>
  <name>Beth-zur</name>
  <description>Josh 15:58, 2 Chr 11:7, Neh 3:16, Josh 15:58, 2 Chr 11:7, Neh 3:16</description>
  <Point><coordinates>35.102620,31.596107</coordinates></Point>
  <Latlng><coordinates>31.596107,35.102620</coordinates></Latlng>
</Placemark>
<Placemark>
  <name>Bethany</name>
  <description>Matt 21:17, Matt 26:6, Mark 11:1, Mark 11:11, Mark 11:12, Mark 14:3, Luke 19:29, Luke 24:50, John 11:1, John 11:18, John 12:1, Matt 21:17, Matt 26:6, Mark 11:1, Mark 11:11, Mark 11:12, Mark 14:3, Luke 19:29, Luke 24:50, John 11:1, John 11:18, John 12:1</description>
  <Point><coordinates>35.262122,31.771665</coordinates></Point>
  <Latlng><coordinates>31.771665,35.262122</coordinates></Latlng>
</Placemark>
<Placemark>
  <name>Bethany</name>
  <description>John 1:28, John 1:28</description>
  <Point><coordinates>35.552600,31.836321</coordinates></Point>
  <Latlng><coordinates>31.836321,35.552600</coordinates></Latlng>
</Placemark>
<Placemark>
  <name>Bethel</name>
  <description>Gen 12:8, Gen 13:3, Gen 28:19, Gen 31:13, Gen 35:1, Gen 35:3, Gen 35:6, Gen 35:8, Gen 35:15, Gen 35:16, Josh 7:2, Josh 8:9, Josh 8:12, Josh 8:17, Josh 12:9, Josh 16:1, Josh 16:2, Josh 18:13, Josh 18:22, Judg 1:22, Judg 1:23, Judg 4:5, Judg 20:18, Judg 20:26, Judg 20:31, Judg 21:2, Judg 21:19, 1 Sam 7:16, 1 Sam 10:3, 1 Sam 13:2, 1 Kgs 12:29, 1 Kgs 12:32, 1 Kgs 12:33, 1 Kgs 13:1, 1 Kgs 13:4, 1 Kgs 13:10, 1 Kgs 13:11, 1 Kgs 13:32, 1 Kgs 16:34, 2 Kgs 2:2, 2 Kgs 2:3, 2 Kgs 2:23, 2 Kgs 10:29, 2 Kgs 17:28, 2 Kgs 23:4, 2 Kgs 23:15, 2 Kgs 23:17, 2 Kgs 23:19, 1 Chr 7:28, 2 Chr 13:19, Ezra 2:28, Neh 7:32, Neh 11:31, Jer 48:13, Hos 10:15, Hos 12:4, Amos 3:14, Amos 4:4, Amos 5:5, Amos 5:6, Amos 7:10, Amos 7:13, Zech 7:2, Gen 12:8, Gen 13:3, Gen 28:19, Gen 31:13, Gen 35:1, Gen 35:3, Gen 35:6, Gen 35:8, Gen 35:15, Gen 35:16, Josh 7:2, Josh 8:9, Josh 8:12, Josh 8:17, Josh 12:9, Josh 16:1, Josh 16:2, Josh 18:13, Josh 18:22, Judg 1:22, Judg 1:23, Judg 4:5, Judg 20:18, Judg 20:26, Judg 20:31, Judg 21:2, Judg 21:19, 1 Sam 7:16, 1 Sam 10:3, 1 Sam 13:2, 1 Kgs 12:29, 1 Kgs 12:32, 1 Kgs 12:33, 1 Kgs 13:1, 1 Kgs 13:4, 1 Kgs 13:10, 1 Kgs 13:11, 1 Kgs 13:32, 1 Kgs 16:34, 2 Kgs 2:2, 2 Kgs 2:3, 2 Kgs 2:23, 2 Kgs 10:29, 2 Kgs 17:28, 2 Kgs 23:4, 2 Kgs 23:15, 2 Kgs 23:17, 2 Kgs 23:19, 1 Chr 7:28, 2 Chr 13:19, Ezra 2:28, Neh 7:32, Neh 11:31, Jer 48:13, Hos 10:15, Hos 12:4, Amos 3:14, Amos 4:4, Amos 5:5, Amos 5:6, Amos 7:10, Amos 7:13, Zech 7:2</description>
  <Point><coordinates>35.221032,31.930539</coordinates></Point>
  <Latlng><coordinates>31.930539,35.221032</coordinates></Latlng>
</Placemark>
<Placemark>
  <name>Bethel&#126;</name>
  <description>Josh 12:16, 1 Sam 30:27, Josh 12:16, 1 Sam 30:27</description>
  <Point><coordinates>35.733402,32.049953</coordinates></Point>
  <Latlng><coordinates>32.049953,35.733402</coordinates></Latlng>
</Placemark>
<Placemark>
  <name>Bethesda&lt;</name>
  <description>John 5:2, John 5:2</description>
  <Point><coordinates>35.234935,31.777444</coordinates></Point>
  <Latlng><coordinates>31.777444,35.234935</coordinates></Latlng>
</Placemark>
<Placemark>
  <name>Bethlehem</name>
  <description>Gen 35:19, Gen 48:7, Judg 12:8, Judg 12:10, Judg 17:7, Judg 17:8, Judg 17:9, Judg 19:1, Judg 19:2, Judg 19:18, Ruth 1:1, Ruth 1:2, Ruth 1:19, Ruth 1:22, Ruth 2:4, Ruth 4:11, 1 Sam 16:4, 1 Sam 17:12, 1 Sam 17:15, 1 Sam 20:6, 1 Sam 20:28, 2 Sam 2:32, 2 Sam 23:14, 2 Sam 23:15, 2 Sam 23:16, 2 Sam 23:24, 1 Chr 11:16, 1 Chr 11:17, 1 Chr 11:18, 1 Chr 11:26, 2 Chr 11:6, Ezra 2:21, Neh 7:26, Jer 41:17, Matt 2:1, Matt 2:5, Matt 2:6, Matt 2:8, Matt 2:16, Luke 2:4, Luke 2:15, Gen 35:19, Gen 48:7, Judg 12:8, Judg 12:10, Judg 17:7, Judg 17:8, Judg 17:9, Judg 19:1, Judg 19:2, Judg 19:18, Ruth 1:1, Ruth 1:2, Ruth 1:19, Ruth 1:22, Ruth 2:4, Ruth 4:11, 1 Sam 16:4, 1 Sam 17:12, 1 Sam 17:15, 1 Sam 20:6, 1 Sam 20:28, 2 Sam 2:32, 2 Sam 23:14, 2 Sam 23:15, 2 Sam 23:16, 2 Sam 23:24, 1 Chr 11:16, 1 Chr 11:17, 1 Chr 11:18, 1 Chr 11:26, 2 Chr 11:6, Ezra 2:21, Neh 7:26, Jer 41:17, Matt 2:1, Matt 2:5, Matt 2:6, Matt 2:8, Matt 2:16, Luke 2:4, Luke 2:15</description>
  <Point><coordinates>35.210266,31.705361</coordinates></Point>
  <Latlng><coordinates>31.705361,35.210266</coordinates></Latlng>
</Placemark>
<Placemark>
  <name>Bethlehem</name>
  <description>Josh 19:15, Josh 19:15</description>
  <Point><coordinates>35.189704,32.735379</coordinates></Point>
  <Latlng><coordinates>32.735379,35.189704</coordinates></Latlng>
</Placemark>
<Placemark>
  <name>Bethlehem Ephrathah</name>
  <description>Mic 5:2, Mic 5:2</description>
  <Point><coordinates>35.210266,31.705361</coordinates></Point>
  <Latlng><coordinates>31.705361,35.210266</coordinates></Latlng>
</Placemark>
<Placemark>
  <name>Bethphage</name>
  <description>Matt 21:1, Mark 11:1, Luke 19:29, Matt 21:1, Mark 11:1, Luke 19:29</description>
  <Point><coordinates>35.256672,31.790383</coordinates></Point>
  <Latlng><coordinates>31.790383,35.256672</coordinates></Latlng>
</Placemark>
<Placemark>
  <name>Bethsaida</name>
  <description>Matt 11:21, Mark 6:45, Mark 8:22, Luke 9:10, Luke 10:13, John 1:44, John 12:21, Matt 11:21, Mark 6:45, Mark 8:22, Luke 9:10, Luke 10:13, John 1:44, John 12:21</description>
  <Point><coordinates>35.626972,32.907848</coordinates></Point>
  <Latlng><coordinates>32.907848,35.626972</coordinates></Latlng>
</Placemark>
<Placemark>
  <name>Bethuel&#126;</name>
  <description>1 Chr 4:30, 1 Chr 4:30</description>
  <Point><coordinates>35.733402,32.049953</coordinates></Point>
  <Latlng><coordinates>32.049953,35.733402</coordinates></Latlng>
</Placemark>
<Placemark>
  <name>Bethul&#126;</name>
  <description>Josh 19:4, Josh 19:4</description>
  <Point><coordinates>35.733402,32.049953</coordinates></Point>
  <Latlng><coordinates>32.049953,35.733402</coordinates></Latlng>
</Placemark>
<Placemark>
  <name>Betonim</name>
  <description>Josh 13:26, Josh 13:26</description>
  <Point><coordinates>35.706297,32.010500</coordinates></Point>
  <Latlng><coordinates>32.010500,35.706297</coordinates></Latlng>
</Placemark>
<Placemark>
  <name>Beyond the River&gt;</name>
  <description>Ezra 4:10, Ezra 4:11, Ezra 4:16, Ezra 4:17, Ezra 4:20, Ezra 5:3, Ezra 5:6, Ezra 6:6, Ezra 6:8, Ezra 6:13, Ezra 7:21, Ezra 7:25, Ezra 8:36, Neh 2:7, Neh 2:9, Neh 3:7, Ezra 4:10, Ezra 4:11, Ezra 4:16, Ezra 4:17, Ezra 4:20, Ezra 5:3, Ezra 5:6, Ezra 6:6, Ezra 6:8, Ezra 6:13, Ezra 7:21, Ezra 7:25, Ezra 8:36, Neh 2:7, Neh 2:9, Neh 3:7</description>
  <Point><coordinates>35.234935,31.777444</coordinates></Point>
  <Latlng><coordinates>31.777444,35.234935</coordinates></Latlng>
</Placemark>
<Placemark>
  <name>Bezek</name>
  <description>Judg 1:4, Judg 1:5, Judg 1:4, Judg 1:5</description>
  <Point><coordinates>34.952878,31.898029</coordinates></Point>
  <Latlng><coordinates>31.898029,34.952878</coordinates></Latlng>
</Placemark>
<Placemark>
  <name>Bezek</name>
  <description>1 Sam 11:8, 1 Sam 11:8</description>
  <Point><coordinates>35.4,32.3667</coordinates></Point>
  <Latlng><coordinates>32.3667,35.4</coordinates></Latlng>
</Placemark>
<Placemark>
  <name>Bezer</name>
  <description>Deut 4:43, Josh 20:8, Josh 21:36, 1 Chr 6:78, Deut 4:43, Josh 20:8, Josh 21:36, 1 Chr 6:78</description>
  <Point><coordinates>36.488290,32.516137</coordinates></Point>
  <Latlng><coordinates>32.516137,36.488290</coordinates></Latlng>
</Placemark>
<Placemark>
  <name>Bileam</name>
  <description>1 Chr 6:70, 1 Chr 6:70</description>
  <Point><coordinates>35.2833,32.45</coordinates></Point>
  <Latlng><coordinates>32.45,35.2833</coordinates></Latlng>
</Placemark>
<Placemark>
  <name>Bilhah&#126;</name>
  <description>1 Chr 4:29, 1 Chr 4:29</description>
  <Point><coordinates>34.840888,31.244952</coordinates></Point>
  <Latlng><coordinates>31.244952,34.840888</coordinates></Latlng>
</Placemark>
<Placemark>
  <name>Bithynia&gt;</name>
  <description>Acts 16:7, 1 Pet 1:1, Acts 16:7, 1 Pet 1:1</description>
  <Point><coordinates>30.685778,40.905503</coordinates></Point>
  <Latlng><coordinates>40.905503,30.685778</coordinates></Latlng>
</Placemark>
<Placemark>
  <name>Biziothiah&#126;</name>
  <description>Josh 15:28, Josh 15:28</description>
  <Point><coordinates>34.840888,31.244952</coordinates></Point>
  <Latlng><coordinates>31.244952,34.840888</coordinates></Latlng>
</Placemark>
<Placemark>
  <name>Bochim</name>
  <description>Judg 2:1, Judg 2:5, Judg 2:1, Judg 2:5</description>
  <Point><coordinates>35.221032,31.930539</coordinates></Point>
  <Latlng><coordinates>31.930539,35.221032</coordinates></Latlng>
</Placemark>
<Placemark>
  <name>Bor-ashan&#126;</name>
  <description>1 Sam 30:30, 1 Sam 30:30</description>
  <Point><coordinates>34.9365,31.8099</coordinates></Point>
  <Latlng><coordinates>31.8099,34.9365</coordinates></Latlng>
</Placemark>
<Placemark>
  <name>Bozez</name>
  <description>1 Sam 14:4, 1 Sam 14:4</description>
  <Point><coordinates>35.287147,31.857164</coordinates></Point>
  <Latlng><coordinates>31.857164,35.287147</coordinates></Latlng>
</Placemark>
<Placemark>
  <name>Bozkath&#126;</name>
  <description>Josh 15:39, 2 Kgs 22:1, Josh 15:39, 2 Kgs 22:1</description>
  <Point><coordinates>34.846725,31.564850</coordinates></Point>
  <Latlng><coordinates>31.564850,34.846725</coordinates></Latlng>
</Placemark>
<Placemark>
  <name>Bozrah</name>
  <description>Gen 36:33, 1 Chr 1:44, Isa 34:6, Isa 63:1, Jer 49:13, Jer 49:22, Amos 1:12, Gen 36:33, 1 Chr 1:44, Isa 34:6, Isa 63:1, Jer 49:13, Jer 49:22, Amos 1:12</description>
  <Point><coordinates>35.606250,30.734691</coordinates></Point>
  <Latlng><coordinates>30.734691,35.606250</coordinates></Latlng>
</Placemark>
<Placemark>
  <name>Bozrah</name>
  <description>Jer 48:24, Jer 48:24</description>
  <Point><coordinates>36.488290,32.516137</coordinates></Point>
  <Latlng><coordinates>32.516137,36.488290</coordinates></Latlng>
</Placemark>
<Placemark>
  <name>Broad Wall&#126;</name>
  <description>Neh 3:8, Neh 12:38, Neh 3:8, Neh 12:38</description>
  <Point><coordinates>35.234935,31.777444</coordinates></Point>
  <Latlng><coordinates>31.777444,35.234935</coordinates></Latlng>
</Placemark>
<Placemark>
  <name>Brook of Egypt</name>
  <description>Num 34:5, Josh 15:4, Josh 15:47, 1 Kgs 8:65, 2 Kgs 24:7, 2 Chr 7:8, Isa 27:12, Ezek 47:19, Ezek 48:28, Num 34:5, Josh 15:4, Josh 15:47, 1 Kgs 8:65, 2 Kgs 24:7, 2 Chr 7:8, Isa 27:12, Ezek 47:19, Ezek 48:28</description>
  <Point><coordinates>33.854957,31.032047</coordinates></Point>
  <Latlng><coordinates>31.032047,33.854957</coordinates></Latlng>
</Placemark>
<Placemark>
  <name>Brook of the Arabah&#126;</name>
  <description>Amos 6:14, Amos 6:14</description>
  <Point><coordinates>36.749488,35.136204</coordinates></Point>
  <Latlng><coordinates>35.136204,36.749488</coordinates></Latlng>
</Placemark>
<Placemark>
  <name>Brook of the Willows&#126;</name>
  <description>Isa 15:7, Isa 15:7</description>
  <Point><coordinates>35.559900,32.309099</coordinates></Point>
  <Latlng><coordinates>32.309099,35.559900</coordinates></Latlng>
</Placemark>
<Placemark>
  <name>Buz&#126;</name>
  <description>Jer 25:23, Jer 25:23</description>
  <Point><coordinates>37.919663,26.625139</coordinates></Point>
  <Latlng><coordinates>26.625139,37.919663</coordinates></Latlng>
</Placemark>
<Placemark>
  <name>Cabbon&#126;</name>
  <description>Josh 15:40, Josh 15:40</description>
  <Point><coordinates>34.7667,31.5</coordinates></Point>
  <Latlng><coordinates>31.5,34.7667</coordinates></Latlng>
</Placemark>
<Placemark>
  <name>Cabul</name>
  <description>Josh 19:27, Josh 19:27</description>
  <Point><coordinates>35.211814,32.865661</coordinates></Point>
  <Latlng><coordinates>32.865661,35.211814</coordinates></Latlng>
</Placemark>
<Placemark>
  <name>Cabul&#126;</name>
  <description>1 Kgs 9:13, 1 Kgs 9:13</description>
  <Point><coordinates>35.211814,32.865661</coordinates></Point>
  <Latlng><coordinates>32.865661,35.211814</coordinates></Latlng>
</Placemark>
<Placemark>
  <name>Caesarea</name>
  <description>Acts 8:40, Acts 9:30, Acts 10:1, Acts 10:24, Acts 11:11, Acts 12:19, Acts 18:22, Acts 21:8, Acts 21:16, Acts 23:23, Acts 23:33, Acts 25:1, Acts 25:4, Acts 25:6, Acts 25:13, Acts 8:40, Acts 9:30, Acts 10:1, Acts 10:24, Acts 11:11, Acts 12:19, Acts 18:22, Acts 21:8, Acts 21:16, Acts 23:23, Acts 23:33, Acts 25:1, Acts 25:4, Acts 25:6, Acts 25:13</description>
  <Point><coordinates>34.892184,32.499544</coordinates></Point>
  <Latlng><coordinates>32.499544,34.892184</coordinates></Latlng>
</Placemark>
<Placemark>
  <name>Caesarea Philippi</name>
  <description>Matt 16:13, Mark 8:27, Matt 16:13, Mark 8:27</description>
  <Point><coordinates>35.694637,33.248059</coordinates></Point>
  <Latlng><coordinates>33.248059,35.694637</coordinates></Latlng>
</Placemark>
<Placemark>
  <name>Calah</name>
  <description>Gen 10:11, Gen 10:12, Gen 10:11, Gen 10:12</description>
  <Point><coordinates>43.312178,36.142884</coordinates></Point>
  <Latlng><coordinates>36.142884,43.312178</coordinates></Latlng>
</Placemark>
<Placemark>
  <name>Calneh</name>
  <description>Gen 10:10, Amos 6:2, Gen 10:10, Amos 6:2</description>
  <Point><coordinates>45.229995,32.127213</coordinates></Point>
  <Latlng><coordinates>32.127213,45.229995</coordinates></Latlng>
</Placemark>
<Placemark>
  <name>Calno</name>
  <description>Isa 10:9, Isa 10:9</description>
  <Point><coordinates>45.229995,32.127213</coordinates></Point>
  <Latlng><coordinates>32.127213,45.229995</coordinates></Latlng>
</Placemark>
<Placemark>
  <name>Cana</name>
  <description>John 2:1, John 2:11, John 4:46, John 21:2, John 2:1, John 2:11, John 4:46, John 21:2</description>
  <Point><coordinates>35.338771,32.747015</coordinates></Point>
  <Latlng><coordinates>32.747015,35.338771</coordinates></Latlng>
</Placemark>
<Placemark>
  <name>Canaan&gt;</name>
  <description>Gen 11:31, Gen 12:5, Gen 13:12, Gen 16:3, Gen 17:8, Gen 23:2, Gen 23:19, Gen 31:18, Gen 33:18, Gen 35:6, Gen 36:5, Gen 36:6, Gen 37:1, Gen 42:5, Gen 42:7, Gen 42:13, Gen 42:29, Gen 42:32, Gen 44:8, Gen 45:17, Gen 45:25, Gen 46:6, Gen 46:12, Gen 46:31, Gen 47:1, Gen 47:4, Gen 47:13, Gen 47:14, Gen 47:15, Gen 48:3, Gen 48:7, Gen 49:30, Gen 50:5, Gen 50:13, Ex 6:4, Ex 15:15, Ex 16:35, Lev 14:34, Lev 18:3, Lev 25:38, Num 13:2, Num 13:17, Num 26:19, Num 32:30, Num 32:32, Num 33:40, Num 33:51, Num 34:2, Num 34:29, Num 35:10, Num 35:14, Deut 32:49, Josh 5:12, Josh 14:1, Josh 21:2, Josh 22:9, Josh 22:10, Josh 22:11, Josh 22:32, Josh 24:3, Judg 3:1, Judg 4:2, Judg 4:23, Judg 4:24, Judg 5:19, Judg 21:12, 1 Chr 16:18, Ps 105:11, Ps 106:38, Ps 135:11, Isa 19:18, Isa 23:11, Zeph 2:5, Acts 7:11, Acts 13:19, Gen 11:31, Gen 12:5, Gen 13:12, Gen 16:3, Gen 17:8, Gen 23:2, Gen 23:19, Gen 31:18, Gen 33:18, Gen 35:6, Gen 36:5, Gen 36:6, Gen 37:1, Gen 42:5, Gen 42:7, Gen 42:13, Gen 42:29, Gen 42:32, Gen 44:8, Gen 45:17, Gen 45:25, Gen 46:6, Gen 46:12, Gen 46:31, Gen 47:1, Gen 47:4, Gen 47:13, Gen 47:14, Gen 47:15, Gen 48:3, Gen 48:7, Gen 49:30, Gen 50:5, Gen 50:13, Ex 6:4, Ex 15:15, Ex 16:35, Lev 14:34, Lev 18:3, Lev 25:38, Num 13:2, Num 13:17, Num 26:19, Num 32:30, Num 32:32, Num 33:40, Num 33:51, Num 34:2, Num 34:29, Num 35:10, Num 35:14, Deut 32:49, Josh 5:12, Josh 14:1, Josh 21:2, Josh 22:9, Josh 22:10, Josh 22:11, Josh 22:32, Josh 24:3, Judg 3:1, Judg 4:2, Judg 4:23, Judg 4:24, Judg 5:19, Judg 21:12, 1 Chr 16:18, Ps 105:11, Ps 106:38, Ps 135:11, Isa 19:18, Isa 23:11, Zeph 2:5, Acts 7:11, Acts 13:19</description>
  <Point><coordinates>34.843882,31.693529</coordinates></Point>
  <Latlng><coordinates>31.693529,34.843882</coordinates></Latlng>
</Placemark>
<Placemark>
  <name>Canneh</name>
  <description>Ezek 27:23, Ezek 27:23</description>
  <Point><coordinates>45.229995,32.127213</coordinates></Point>
  <Latlng><coordinates>32.127213,45.229995</coordinates></Latlng>
</Placemark>
<Placemark>
  <name>Capernaum</name>
  <description>Matt 4:13, Matt 8:5, Matt 11:23, Matt 17:24, Mark 1:21, Mark 2:1, Mark 9:33, Luke 4:23, Luke 4:31, Luke 7:1, Luke 10:15, John 2:12, John 4:46, John 6:17, John 6:24, John 6:59, Matt 4:13, Matt 8:5, Matt 11:23, Matt 17:24, Mark 1:21, Mark 2:1, Mark 9:33, Luke 4:23, Luke 4:31, Luke 7:1, Luke 10:15, John 2:12, John 4:46, John 6:17, John 6:24, John 6:59</description>
  <Point><coordinates>35.575157,32.880594</coordinates></Point>
  <Latlng><coordinates>32.880594,35.575157</coordinates></Latlng>
</Placemark>
<Placemark>
  <name>Caphtor</name>
  <description>Deut 2:23, Jer 47:4, Amos 9:7, Deut 2:23, Jer 47:4, Amos 9:7</description>
  <Point><coordinates>25.007204,35.171239</coordinates></Point>
  <Latlng><coordinates>35.171239,25.007204</coordinates></Latlng>
</Placemark>
<Placemark>
  <name>Cappadocia&gt;</name>
  <description>Acts 2:9, 1 Pet 1:1, Acts 2:9, 1 Pet 1:1</description>
  <Point><coordinates>35.486302,36.731904</coordinates></Point>
  <Latlng><coordinates>36.731904,35.486302</coordinates></Latlng>
</Placemark>
<Placemark>
  <name>Carchemish</name>
  <description>2 Chr 35:20, Isa 10:9, Jer 46:2, 2 Chr 35:20, Isa 10:9, Jer 46:2</description>
  <Point><coordinates>38.015760,36.829281</coordinates></Point>
  <Latlng><coordinates>36.829281,38.015760</coordinates></Latlng>
</Placemark>
<Placemark>
  <name>Carmel</name>
  <description>Josh 12:22, Josh 15:55, Josh 19:26, 1 Sam 15:12, 1 Sam 25:2, 1 Sam 25:5, 1 Sam 25:7, 1 Sam 25:40, 1 Sam 27:3, 1 Sam 30:5, 2 Sam 2:2, 2 Sam 3:3, 2 Sam 23:35, 1 Chr 11:37, Sng 7:5, Isa 33:9, Isa 35:2, Jer 46:18, Jer 50:19, Amos 1:2, Amos 9:3, Nahum 1:4, Josh 12:22, Josh 15:55, Josh 19:26, 1 Sam 15:12, 1 Sam 25:2, 1 Sam 25:5, 1 Sam 25:7, 1 Sam 25:40, 1 Sam 27:3, 1 Sam 30:5, 2 Sam 2:2, 2 Sam 3:3, 2 Sam 23:35, 1 Chr 11:37, Sng 7:5, Isa 33:9, Isa 35:2, Jer 46:18, Jer 50:19, Amos 1:2, Amos 9:3, Nahum 1:4</description>
  <Point><coordinates>35.133331,31.433331</coordinates></Point>
  <Latlng><coordinates>31.433331,35.133331</coordinates></Latlng>
</Placemark>
<Placemark>
  <name>Casiphia&#126;</name>
  <description>Ezra 8:17, Ezra 8:17</description>
  <Point><coordinates>36.749488,35.136204</coordinates></Point>
  <Latlng><coordinates>35.136204,36.749488</coordinates></Latlng>
</Placemark>
<Placemark>
  <name>Cauda</name>
  <description>Acts 27:16, Acts 27:16</description>
  <Point><coordinates>24.091671,34.843510</coordinates></Point>
  <Latlng><coordinates>34.843510,24.091671</coordinates></Latlng>
</Placemark>
<Placemark>
  <name>Cenchreae</name>
  <description>Acts 18:18, Rom 16:1, Acts 18:18, Rom 16:1</description>
  <Point><coordinates>22.993359,37.884603</coordinates></Point>
  <Latlng><coordinates>37.884603,22.993359</coordinates></Latlng>
</Placemark>
<Placemark>
  <name>Chaldea&gt;</name>
  <description>Isa 48:20, Jer 50:10, Jer 51:24, Jer 51:35, Ezek 11:24, Ezek 16:29, Ezek 23:15, Ezek 23:16, Isa 48:20, Jer 50:10, Jer 51:24, Jer 51:35, Ezek 11:24, Ezek 16:29, Ezek 23:15, Ezek 23:16</description>
  <Point><coordinates>46.103741,30.962052</coordinates></Point>
  <Latlng><coordinates>30.962052,46.103741</coordinates></Latlng>
</Placemark>
<Placemark>
  <name>Chebar</name>
  <description>Ezek 1:1, Ezek 1:3, Ezek 3:15, Ezek 3:23, Ezek 10:15, Ezek 10:20, Ezek 10:22, Ezek 43:3, Ezek 1:1, Ezek 1:3, Ezek 3:15, Ezek 3:23, Ezek 10:15, Ezek 10:20, Ezek 10:22, Ezek 43:3</description>
  <Point><coordinates>44.062930,33.159129</coordinates></Point>
  <Latlng><coordinates>33.159129,44.062930</coordinates></Latlng>
</Placemark>
<Placemark>
  <name>Chephar-ammoni</name>
  <description>Josh 18:24, Josh 18:24</description>
  <Point><coordinates>35.250000,31.966667</coordinates></Point>
  <Latlng><coordinates>31.966667,35.250000</coordinates></Latlng>
</Placemark>
<Placemark>
  <name>Chephirah</name>
  <description>Josh 9:17, Josh 18:26, Ezra 2:25, Neh 7:29, Josh 9:17, Josh 18:26, Ezra 2:25, Neh 7:29</description>
  <Point><coordinates>35.095272,31.836401</coordinates></Point>
  <Latlng><coordinates>31.836401,35.095272</coordinates></Latlng>
</Placemark>
<Placemark>
  <name>Cherith&#126;</name>
  <description>1 Kgs 17:3, 1 Kgs 17:5, 1 Kgs 17:3, 1 Kgs 17:5</description>
  <Point><coordinates>35.559900,32.309099</coordinates></Point>
  <Latlng><coordinates>32.309099,35.559900</coordinates></Latlng>
</Placemark>
<Placemark>
  <name>Cherub&#126;</name>
  <description>Ezra 2:59, Neh 7:61, Ezra 2:59, Neh 7:61</description>
  <Point><coordinates>44.420882,32.536503</coordinates></Point>
  <Latlng><coordinates>32.536503,44.420882</coordinates></Latlng>
</Placemark>
<Placemark>
  <name>Chesalon</name>
  <description>Josh 15:10, Josh 15:10</description>
  <Point><coordinates>35.051130,31.781049</coordinates></Point>
  <Latlng><coordinates>31.781049,35.051130</coordinates></Latlng>
</Placemark>
<Placemark>
  <name>Chesil&#126;</name>
  <description>Josh 15:30, Josh 15:30</description>
  <Point><coordinates>35.733402,32.049953</coordinates></Point>
  <Latlng><coordinates>32.049953,35.733402</coordinates></Latlng>
</Placemark>
<Placemark>
  <name>Chesulloth</name>
  <description>Josh 19:18, Josh 19:18</description>
  <Point><coordinates>35.324694,32.683231</coordinates></Point>
  <Latlng><coordinates>32.683231,35.324694</coordinates></Latlng>
</Placemark>
<Placemark>
  <name>Chezib</name>
  <description>Gen 38:5, Gen 38:5</description>
  <Point><coordinates>35.000000,31.700000</coordinates></Point>
  <Latlng><coordinates>31.700000,35.000000</coordinates></Latlng>
</Placemark>
<Placemark>
  <name>Chilmad&#126;</name>
  <description>Ezek 27:23, Ezek 27:23</description>
  <Point><coordinates>43.152887,36.359410</coordinates></Point>
  <Latlng><coordinates>36.359410,43.152887</coordinates></Latlng>
</Placemark>
<Placemark>
  <name>Chinnereth</name>
  <description>Deut 3:17, Deut 3:17</description>
  <Point><coordinates>35.589360,32.806775</coordinates></Point>
  <Latlng><coordinates>32.806775,35.589360</coordinates></Latlng>
</Placemark>
<Placemark>
  <name>Chinnereth&#126;</name>
  <description>Josh 19:35, Josh 19:35</description>
  <Point><coordinates>35.589360,32.806775</coordinates></Point>
  <Latlng><coordinates>32.806775,35.589360</coordinates></Latlng>
</Placemark>
<Placemark>
  <name>Chinneroth&gt;</name>
  <description>Josh 11:2, 1 Kgs 15:20, Josh 11:2, 1 Kgs 15:20</description>
  <Point><coordinates>35.589360,32.806775</coordinates></Point>
  <Latlng><coordinates>32.806775,35.589360</coordinates></Latlng>
</Placemark>
<Placemark>
  <name>Chios</name>
  <description>Acts 20:15, Acts 20:15</description>
  <Point><coordinates>26.063302,38.444840</coordinates></Point>
  <Latlng><coordinates>38.444840,26.063302</coordinates></Latlng>
</Placemark>
<Placemark>
  <name>Chisloth-tabor</name>
  <description>Josh 19:12, Josh 19:12</description>
  <Point><coordinates>35.324694,32.683231</coordinates></Point>
  <Latlng><coordinates>32.683231,35.324694</coordinates></Latlng>
</Placemark>
<Placemark>
  <name>Chitlish&#126;</name>
  <description>Josh 15:40, Josh 15:40</description>
  <Point><coordinates>34.777779,31.823337</coordinates></Point>
  <Latlng><coordinates>31.823337,34.777779</coordinates></Latlng>
</Placemark>
<Placemark>
  <name>Chorazin</name>
  <description>Matt 11:21, Luke 10:13, Matt 11:21, Luke 10:13</description>
  <Point><coordinates>35.552923,32.909091</coordinates></Point>
  <Latlng><coordinates>32.909091,35.552923</coordinates></Latlng>
</Placemark>
<Placemark>
  <name>Cilicia&gt;</name>
  <description>Acts 6:9, Acts 15:23, Acts 15:41, Acts 21:39, Acts 22:3, Acts 23:34, Acts 27:5, Gal 1:21, Acts 6:9, Acts 15:23, Acts 15:41, Acts 21:39, Acts 22:3, Acts 23:34, Acts 27:5, Gal 1:21</description>
  <Point><coordinates>34.891533,36.918026</coordinates></Point>
  <Latlng><coordinates>36.918026,34.891533</coordinates></Latlng>
</Placemark>
<Placemark>
  <name>City of Destruction</name>
  <description>Isa 19:18, Isa 19:18</description>
  <Point><coordinates>31.338220,30.108086</coordinates></Point>
  <Latlng><coordinates>30.108086,31.338220</coordinates></Latlng>
</Placemark>
<Placemark>
  <name>City of Salt&#126;</name>
  <description>Josh 15:62, Josh 15:62</description>
  <Point><coordinates>35.392411,31.461525</coordinates></Point>
  <Latlng><coordinates>31.461525,35.392411</coordinates></Latlng>
</Placemark>
<Placemark>
  <name>City of the Lord</name>
  <description>Isa 60:14, Isa 60:14</description>
  <Point><coordinates>35.234935,31.777444</coordinates></Point>
  <Latlng><coordinates>31.777444,35.234935</coordinates></Latlng>
</Placemark>
<Placemark>
  <name>Cnidus</name>
  <description>Acts 27:7, Acts 27:7</description>
  <Point><coordinates>27.374394,36.685022</coordinates></Point>
  <Latlng><coordinates>36.685022,27.374394</coordinates></Latlng>
</Placemark>
<Placemark>
  <name>Colossae</name>
  <description>Col 1:2, Col 1:2</description>
  <Point><coordinates>29.25,37.783333</coordinates></Point>
  <Latlng><coordinates>37.783333,29.25</coordinates></Latlng>
</Placemark>
<Placemark>
  <name>Corinth</name>
  <description>Acts 18:1, Acts 19:1, 1 Cor 1:2, 2 Cor 1:1, 2 Cor 1:23, 2 Tim 4:20, Acts 18:1, Acts 19:1, 1 Cor 1:2, 2 Cor 1:1, 2 Cor 1:23, 2 Tim 4:20</description>
  <Point><coordinates>22.877881,37.905957</coordinates></Point>
  <Latlng><coordinates>37.905957,22.877881</coordinates></Latlng>
</Placemark>
<Placemark>
  <name>Corner Gate&lt;</name>
  <description>2 Kgs 14:13, 2 Chr 25:23, 2 Chr 26:9, Jer 31:38, Zech 14:10, 2 Kgs 14:13, 2 Chr 25:23, 2 Chr 26:9, Jer 31:38, Zech 14:10</description>
  <Point><coordinates>35.234935,31.777444</coordinates></Point>
  <Latlng><coordinates>31.777444,35.234935</coordinates></Latlng>
</Placemark>
<Placemark>
  <name>Cos</name>
  <description>Acts 21:1, Acts 21:1</description>
  <Point><coordinates>27.089940,36.804670</coordinates></Point>
  <Latlng><coordinates>36.804670,27.089940</coordinates></Latlng>
</Placemark>
<Placemark>
  <name>Cozeba</name>
  <description>1 Chr 4:22, 1 Chr 4:22</description>
  <Point><coordinates>35.000000,31.700000</coordinates></Point>
  <Latlng><coordinates>31.700000,35.000000</coordinates></Latlng>
</Placemark>
<Placemark>
  <name>Crete</name>
  <description>Acts 27:7, Acts 27:12, Acts 27:13, Acts 27:21, Titus 1:5, Acts 27:7, Acts 27:12, Acts 27:13, Acts 27:21, Titus 1:5</description>
  <Point><coordinates>25.007204,35.171239</coordinates></Point>
  <Latlng><coordinates>35.171239,25.007204</coordinates></Latlng>
</Placemark>
<Placemark>
  <name>Cun</name>
  <description>1 Chr 18:8, 1 Chr 18:8</description>
  <Point><coordinates>36.152049,33.931480</coordinates></Point>
  <Latlng><coordinates>33.931480,36.152049</coordinates></Latlng>
</Placemark>
<Placemark>
  <name>Cush&gt;</name>
  <description>Gen 2:13, 2 Kgs 19:9, Ps 68:31, Ps 87:4, Isa 11:11, Isa 18:1, Isa 20:3, Isa 20:5, Isa 37:9, Isa 43:3, Isa 45:14, Jer 46:9, Ezek 29:10, Ezek 30:4, Ezek 30:5, Ezek 30:9, Ezek 38:5, Nahum 3:9, Zeph 3:10, Gen 2:13, 2 Kgs 19:9, Ps 68:31, Ps 87:4, Isa 11:11, Isa 18:1, Isa 20:3, Isa 20:5, Isa 37:9, Isa 43:3, Isa 45:14, Jer 46:9, Ezek 29:10, Ezek 30:4, Ezek 30:5, Ezek 30:9, Ezek 38:5, Nahum 3:9, Zeph 3:10</description>
  <Point><coordinates>31.343557,21.959788</coordinates></Point>
  <Latlng><coordinates>21.959788,31.343557</coordinates></Latlng>
</Placemark>
<Placemark>
  <name>Cushan&gt;</name>
  <description>Hab 3:7, Hab 3:7</description>
  <Point><coordinates>31.343557,21.959788</coordinates></Point>
  <Latlng><coordinates>21.959788,31.343557</coordinates></Latlng>
</Placemark>
<Placemark>
  <name>Cuth</name>
  <description>2 Kgs 17:30, 2 Kgs 17:30</description>
  <Point><coordinates>44.666667,32.733333</coordinates></Point>
  <Latlng><coordinates>32.733333,44.666667</coordinates></Latlng>
</Placemark>
<Placemark>
  <name>Cuthah</name>
  <description>2 Kgs 17:24, 2 Kgs 17:24</description>
  <Point><coordinates>44.666667,32.733333</coordinates></Point>
  <Latlng><coordinates>32.733333,44.666667</coordinates></Latlng>
</Placemark>